$GPGGA,020235,3739.8145,N,12700.7309,E,1,03,04.2,00074.0,M,019.5,M,00,0000*40
$GPGSA,A,2,10,02,08,,,,,,,,,,04.3,04.2,01.0*08
$GPGSV,3,1,09,02,75,105,45,10,62,030,45,08,21,103,46,05,66,321,39*74
$GPGSV,3,2,09,29,30,304,29,04,27,122,43,15,27,210,28,07,19,065,45*77
$GPGSV,3,3,09,13,03,037,00,,,,,,,,,,,,*45
$GPRMC,020235,A,3739.8145,N,12700.7309,E,003.1,325.3,280310,,,A*74
$GPVTG,325.3,T,,M,003.1,N,005.8,K,N*0A
$GPGGA,020249,3739.8269,N,12700.7254,E,1,03,04.2,00074.0,M,019.5,M,00,0000*4F
$GPGSA,A,2,10,02,08,,,,,,,,,,04.3,04.2,01.0*08
$GPGSV,3,1,09,02,75,105,45,10,62,030,45,08,21,103,46,05,66,321,39*74
$GPGSV,3,2,09,29,30,304,32,04,27,122,44,15,27,210,30,07,19,065,42*74
$GPGSV,3,3,09,13,03,037,00,,,,,,,,,,,,*45
$GPRMC,020249,A,3739.8269,N,12700.7254,E,003.5,331.1,280310,,,A*78
$GPVTG,331.1,T,,M,003.5,N,006.5,K,N*07
$GPGGA,020304,3739.8355,N,12700.7157,E,1,06,02.8,00068.3,M,019.5,M,00,0000*4E
$GPGSA,A,3,04,05,10,02,07,08,,,,,,,04.6,02.8,03.6*02
$GPGSV,3,1,09,02,75,105,41,05,66,322,40,10,62,030,43,04,27,122,36*75
$GPGSV,3,2,09,08,21,103,41,29,30,303,37,15,27,210,38,07,19,065,38*7F
$GPGSV,3,3,09,13,03,037,00,,,,,,,,,,,,*45
$GPRMC,020304,A,3739.8355,N,12700.7157,E,003.0,332.5,280310,,,A*7C
$GPVTG,332.5,T,,M,003.0,N,005.6,K,A*0A
$GPGGA,020314,3739.8438,N,12700.7102,E,1,06,02.8,00068.5,M,019.5,M,00,0000*45
$GPGSA,A,3,04,08,02,10,07,05,,,,,,,04.6,02.8,03.6*02
$GPGSV,3,1,09,02,75,105,42,05,66,322,35,10,62,030,40,29,30,303,34*7D
$GPGSV,3,2,09,04,27,122,41,15,27,210,36,08,21,103,41,07,19,065,39*79
$GPGSV,3,3,09,13,03,037,00,,,,,,,,,,,,*45
$GPRMC,020314,A,3739.8438,N,12700.7102,E,003.6,334.6,280310,,,A*72
$GPVTG,334.6,T,,M,003.6,N,006.8,K,A*04
$GPGGA,020334,3739.8777,N,12700.6941,E,1,06,02.9,00071.3,M,019.5,M,00,0000*4E
$GPGSA,A,3,08,10,07,04,02,05,,,,,,,04.6,02.9,03.6*03
$GPGSV,3,1,09,02,74,106,40,05,66,322,40,10,62,031,43,04,27,122,41*77
$GPGSV,3,2,09,08,22,103,35,07,19,065,43,29,30,303,35,15,27,210,37*7E
$GPGSV,3,3,09,13,03,037,00,,,,,,,,,,,,*45
$GPRMC,020334,A,3739.8777,N,12700.6941,E,003.7,335.9,280310,,,A*79
$GPVTG,335.9,T,,M,003.7,N,006.8,K,A*0B
$GPGGA,020346,3739.8890,N,12700.6931,E,1,06,02.9,00077.3,M,019.5,M,00,0000*4C
$GPGSA,A,3,08,10,07,04,02,05,,,,,,,04.6,02.9,03.6*03
$GPGSV,3,1,09,02,74,106,43,05,66,322,40,10,62,031,43,04,27,122,35*77
$GPGSV,3,2,09,08,22,103,29,07,19,065,35,29,30,303,36,15,27,210,38*7E
$GPGSV,3,3,09,13,03,037,00,,,,,,,,,,,,*45
$GPRMC,020346,A,3739.8890,N,12700.6931,E,003.7,001.5,280310,,,A*75
$GPVTG,001.5,T,,M,003.7,N,007.0,K,A*0A
$GPGGA,020404,3739.9049,N,12700.6846,E,1,06,02.9,00075.3,M,019.5,M,00,0000*43
$GPGSA,A,3,07,02,05,10,04,08,,,,,,,04.6,02.9,03.6*03
$GPGSV,3,1,09,02,74,107,41,05,66,323,40,10,62,031,41,04,27,122,42*77
$GPGSV,3,2,09,08,22,102,35,07,19,065,37,29,30,303,34,15,27,210,39*73
$GPGSV,3,3,09,13,02,037,00,,,,,,,,,,,,*44
$GPRMC,020404,A,3739.9049,N,12700.6846,E,003.2,347.3,280310,,,A*7A
$GPVTG,347.3,T,,M,003.2,N,005.9,K,A*03
$GPGGA,020416,3739.9149,N,12700.6780,E,1,06,02.9,00070.8,M,019.5,M,00,0000*4A
$GPGSA,A,3,07,02,05,10,04,08,,,,,,,04.7,02.9,03.6*02
$GPGSV,3,1,09,02,74,107,41,05,66,323,41,10,62,031,46,04,27,122,43*70
$GPGSV,3,2,09,08,22,102,43,07,19,065,42,29,30,303,34,15,27,210,39*70
$GPGSV,3,3,09,13,02,037,00,,,,,,,,,,,,*44
$GPRMC,020416,A,3739.9149,N,12700.6780,E,003.3,331.7,280310,,,A*79
$GPVTG,331.7,T,,M,003.3,N,006.1,K,A*0C
$GPGGA,020434,3739.9307,N,12700.6686,E,1,06,02.9,00072.5,M,019.5,M,00,0000*4A
$GPGSA,A,3,04,05,10,02,08,07,,,,,,,04.7,02.9,03.6*02
$GPGSV,3,1,09,02,74,107,39,05,66,323,36,10,62,031,41,04,27,122,42*79
$GPGSV,3,2,09,08,22,102,36,07,19,065,43,29,31,303,34,15,27,210,39*72
$GPGSV,3,3,09,13,02,037,00,,,,,,,,,,,,*44
$GPRMC,020434,A,3739.9307,N,12700.6686,E,001.9,330.3,280310,,,A*7B
$GPVTG,330.3,T,,M,001.9,N,003.5,K,A*00
$GPGGA,020446,3739.9405,N,12700.6608,E,1,06,02.9,00070.2,M,019.5,M,00,0000*49
$GPGSA,A,3,04,05,10,02,08,07,,,,,,,04.7,02.9,03.6*02
$GPGSV,3,1,09,02,74,107,38,05,66,323,40,10,62,031,41,04,27,122,41*7A
$GPGSV,3,2,09,08,22,102,38,07,19,065,40,29,31,303,35,15,27,210,40*70
$GPGSV,3,3,09,13,02,037,00,,,,,,,,,,,,*44
$GPRMC,020446,A,3739.9405,N,12700.6608,E,003.1,336.3,280310,,,A*71
$GPVTG,336.3,T,,M,003.1,N,005.8,K,A*07
$GPGGA,020457,3739.9494,N,12700.6553,E,1,06,02.9,00071.1,M,019.5,M,00,0000*4E
$GPGSA,A,3,02,10,08,04,05,07,,,,,,,04.7,02.9,03.7*03
$GPGSV,3,1,09,02,74,107,39,05,66,323,37,10,62,031,41,29,31,303,35*71
$GPGSV,3,2,09,15,27,210,38,04,27,122,37,08,22,102,39,07,19,065,37*75
$GPGSV,3,3,09,13,02,037,00,,,,,,,,,,,,*44
$GPRMC,020457,A,3739.9494,N,12700.6553,E,003.5,297.4,280310,,,A*7D
$GPVTG,297.4,T,,M,003.5,N,006.5,K,A*00
$GPGGA,020512,3739.9537,N,12700.6445,E,1,06,02.9,00070.6,M,019.5,M,00,0000*46
$GPGSA,A,3,08,02,10,05,04,07,,,,,,,04.7,02.9,03.7*03
$GPGSV,3,1,09,02,74,107,42,05,66,323,34,10,62,031,40,29,31,303,39*73
$GPGSV,3,2,09,15,27,210,39,04,27,122,35,08,22,102,41,07,19,065,33*7D
$GPGSV,3,3,09,13,02,037,00,,,,,,,,,,,,*44
$GPRMC,020512,A,3739.9537,N,12700.6445,E,001.3,306.8,280310,,,A*72
$GPVTG,306.8,T,,M,001.3,N,002.5,K,A*05
$GPGGA,020527,3739.9606,N,12700.6383,E,1,06,02.9,00068.9,M,019.5,M,00,0000*4A
$GPGSA,A,3,04,05,08,02,10,07,,,,,,,04.7,02.9,03.7*03
$GPGSV,3,1,09,02,74,107,38,05,66,323,37,10,62,031,36,29,31,303,38*7D
$GPGSV,3,2,09,15,27,210,40,04,27,122,41,08,22,102,39,07,19,065,30*7C
$GPGSV,3,3,09,13,02,037,00,,,,,,,,,,,,*44
$GPRMC,020527,A,3739.9606,N,12700.6383,E,003.2,003.6,280310,,,A*73
$GPVTG,003.6,T,,M,003.2,N,006.1,K,A*0E
$GPGGA,020542,3739.9744,N,12700.6432,E,1,05,03.4,00086.8,M,019.5,M,00,0000*4D
$GPGSA,A,3,05,02,04,10,08,,,,,,,,05.2,03.4,03.9*02
$GPGSV,3,1,09,02,74,107,39,05,66,323,40,10,62,031,39,29,31,303,33*78
$GPGSV,3,2,09,15,27,210,36,04,27,122,39,08,22,102,32,07,19,065,00*7A
$GPGSV,3,3,09,13,02,037,00,,,,,,,,,,,,*44
$GPRMC,020542,A,3739.9744,N,12700.6432,E,003.2,336.1,280310,,,A*78
$GPVTG,336.1,T,,M,003.2,N,005.9,K,A*07
$GPGGA,020604,3739.9982,N,12700.6470,E,1,06,02.9,00085.9,M,019.5,M,00,0000*43
$GPGSA,A,3,04,02,08,10,05,07,,,,,,,04.7,02.9,03.7*03
$GPGSV,3,1,09,02,73,109,40,05,66,325,38,10,61,032,41,04,26,123,39*7A
$GPGSV,3,2,09,08,22,102,30,07,19,064,27,29,31,302,34,15,28,211,40*76
$GPGSV,3,3,09,13,02,037,00,,,,,,,,,,,,*44
$GPRMC,020604,A,3739.9982,N,12700.6470,E,002.7,020.7,280310,,,A*7D
$GPVTG,020.7,T,,M,002.7,N,005.1,K,A*09
$GPGGA,020616,3740.0133,N,12700.6551,E,1,06,02.9,00089.3,M,019.5,M,00,0000*41
$GPGSA,A,3,04,02,08,10,05,07,,,,,,,04.7,02.9,03.7*03
$GPGSV,3,1,09,02,73,109,41,05,66,325,38,10,61,032,40,04,26,123,35*76
$GPGSV,3,2,09,08,22,102,29,07,19,064,27,29,31,302,38,15,28,211,41*73
$GPGSV,3,3,09,13,02,037,00,,,,,,,,,,,,*44
$GPRMC,020616,A,3740.0133,N,12700.6551,E,003.2,027.9,280310,,,A*74
$GPVTG,027.9,T,,M,003.2,N,006.0,K,A*06
$GPGGA,020634,3740.0301,N,12700.6696,E,1,06,02.9,00105.9,M,019.5,M,00,0000*45
$GPGSA,A,3,10,02,05,04,07,08,,,,,,,04.7,02.9,03.7*03
$GPGSV,3,1,09,02,73,110,42,05,66,326,37,10,61,033,38,04,26,123,34*7E
$GPGSV,3,2,09,08,22,101,29,07,19,064,32,29,31,302,35,15,28,211,41*79
$GPGSV,3,3,09,13,01,037,00,,,,,,,,,,,,*47
$GPRMC,020634,A,3740.0301,N,12700.6696,E,001.6,060.9,280310,,,A*7A
$GPVTG,060.9,T,,M,001.6,N,003.0,K,A*06
$GPGGA,020646,3740.0374,N,12700.6760,E,1,06,02.9,00117.5,M,019.5,M,00,0000*45
$GPGSA,A,3,10,02,05,04,07,08,,,,,,,04.7,02.9,03.7*03
$GPGSV,3,1,09,02,73,110,43,05,66,326,38,10,61,033,39,04,26,123,28*7C
$GPGSV,3,2,09,08,22,101,29,07,19,064,32,29,31,302,37,15,28,211,39*74
$GPGSV,3,3,09,13,01,037,00,,,,,,,,,,,,*47
$GPRMC,020646,A,3740.0374,N,12700.6760,E,001.6,031.9,280310,,,A*71
$GPVTG,031.9,T,,M,001.6,N,003.0,K,A*02
$GPGGA,020657,3740.0406,N,12700.6893,E,1,06,02.9,00131.1,M,019.5,M,00,0000*44
$GPGSA,A,3,02,10,05,04,07,08,,,,,,,04.7,02.9,03.7*03
$GPGSV,3,1,09,02,73,110,42,05,66,326,35,10,61,033,40,29,31,302,37*78
$GPGSV,3,2,09,15,28,211,38,04,26,123,32,08,22,101,24,07,19,063,30*70
$GPGSV,3,3,09,13,01,037,00,,,,,,,,,,,,*47
$GPRMC,020657,A,3740.0406,N,12700.6893,E,005.1,068.8,280310,,,A*7E
$GPVTG,068.8,T,,M,005.1,N,009.5,K,A*03
$GPGGA,020712,3740.0550,N,12700.7055,E,1,05,02.9,00155.6,M,019.5,M,00,0000*43
$GPGSA,A,3,05,10,02,04,07,,,,,,,,04.7,02.9,03.7*0B
$GPGSV,3,1,09,02,73,110,40,05,66,326,41,10,61,033,40,29,31,302,33*7D
$GPGSV,3,2,09,15,28,211,38,04,26,123,27,08,22,101,00,07,19,063,24*77
$GPGSV,3,3,09,13,01,037,00,,,,,,,,,,,,*47
$GPRMC,020712,A,3740.0550,N,12700.7055,E,003.4,020.6,280310,,,A*7E
$GPVTG,020.6,T,,M,003.4,N,006.3,K,A*0B
$GPGGA,020727,3740.0675,N,12700.7032,E,1,05,02.9,00161.6,M,019.5,M,00,0000*47
$GPGSA,A,3,10,05,02,04,07,,,,,,,,04.7,02.9,03.7*0B
$GPGSV,3,1,09,02,73,110,38,05,66,326,40,10,61,033,42,29,31,302,36*74
$GPGSV,3,2,09,15,28,211,36,04,26,123,30,08,22,101,00,07,19,063,35*7F
$GPGSV,3,3,09,13,01,037,00,,,,,,,,,,,,*47
$GPRMC,020727,A,3740.0675,N,12700.7032,E,002.2,260.8,280310,,,A*72
$GPVTG,260.8,T,,M,002.2,N,004.2,K,A*07
$GPGGA,020742,3740.0623,N,12700.6933,E,1,06,02.9,00124.7,M,019.5,M,00,0000*4D
$GPGSA,A,3,10,08,02,04,05,07,,,,,,,04.7,02.9,03.7*03
$GPGSV,3,1,09,02,73,110,37,05,66,326,31,10,61,033,42,29,31,302,34*7F
$GPGSV,3,2,09,15,28,211,34,04,26,123,37,08,22,101,39,07,19,063,32*77
$GPGSV,3,3,09,13,01,037,00,,,,,,,,,,,,*47
$GPRMC,020742,A,3740.0623,N,12700.6933,E,002.4,323.4,280310,,,A*77
$GPVTG,323.4,T,,M,002.4,N,004.4,K,A*0D
$GPGGA,020757,3740.0722,N,12700.6816,E,1,06,02.9,00091.7,M,019.5,M,00,0000*40
$GPGSA,A,3,10,05,02,04,08,07,,,,,,,04.7,02.9,03.7*03
$GPGSV,3,1,09,02,73,110,36,05,66,326,38,10,61,033,38,29,31,302,00*7D
$GPGSV,3,2,09,15,28,211,33,04,26,123,36,08,22,101,28,07,19,063,32*71
$GPGSV,3,3,09,13,01,037,00,,,,,,,,,,,,*47
$GPRMC,020757,A,3740.0722,N,12700.6816,E,001.9,287.9,280310,,,A*79
$GPVTG,287.9,T,,M,001.9,N,003.5,K,A*07
$GPGGA,020812,3740.0884,N,12700.6747,E,1,06,02.9,00083.0,M,019.5,M,00,0000*42
$GPGSA,A,3,02,10,04,08,07,05,,,,,,,04.7,02.9,03.7*03
$GPGSV,3,1,09,02,73,110,37,05,66,326,32,10,61,033,42,29,31,302,36*7E
$GPGSV,3,2,09,15,28,211,37,04,26,123,35,08,22,101,37,07,19,063,33*79
$GPGSV,3,3,09,13,01,037,00,,,,,,,,,,,,*47
$GPRMC,020812,A,3740.0884,N,12700.6747,E,005.1,006.2,280310,,,A*73
$GPVTG,006.2,T,,M,005.1,N,009.6,K,A*02
$GPGGA,020827,3740.0923,N,12700.6633,E,1,06,02.9,00074.7,M,019.5,M,00,0000*45
$GPGSA,A,3,02,05,10,04,08,07,,,,,,,04.7,02.9,03.7*03
$GPGSV,3,1,09,02,73,110,42,05,66,326,39,10,61,033,39,29,31,302,34*79
$GPGSV,3,2,09,15,28,211,35,04,26,123,38,08,22,101,32,07,19,063,35*75
$GPGSV,3,3,09,13,01,037,00,,,,,,,,,,,,*47
$GPRMC,020827,A,3740.0923,N,12700.6633,E,003.0,298.5,280310,,,A*7E
$GPVTG,298.5,T,,M,003.0,N,005.5,K,A*08
$GPGGA,020842,3740.0971,N,12700.6678,E,1,06,02.9,00097.3,M,019.5,M,00,0000*47
$GPGSA,A,3,05,10,02,08,07,04,,,,,,,04.7,02.9,03.7*03
$GPGSV,3,1,09,02,73,110,34,05,66,326,41,10,61,033,38,29,31,302,31*73
$GPGSV,3,2,09,15,28,211,37,04,26,123,32,08,22,101,35,07,19,063,35*7A
$GPGSV,3,3,09,13,01,037,00,,,,,,,,,,,,*47
$GPRMC,020842,A,3740.0971,N,12700.6678,E,002.3,249.5,280310,,,A*7B
$GPVTG,249.5,T,,M,002.3,N,004.3,K,A*01
$GPGGA,020857,3740.1049,N,12700.6748,E,1,06,02.9,00124.3,M,019.5,M,00,0000*4B
$GPGSA,A,3,02,08,10,04,05,07,,,,,,,04.7,02.9,03.7*03
$GPGSV,3,1,09,02,73,110,40,05,66,326,37,10,61,033,40,29,31,302,37*78
$GPGSV,3,2,09,15,28,211,35,04,26,123,39,08,22,101,39,07,19,063,37*7D
$GPGSV,3,3,09,13,01,037,00,,,,,,,,,,,,*47
$GPRMC,020857,A,3740.1049,N,12700.6748,E,002.1,001.5,280310,,,A*72
$GPVTG,001.5,T,,M,002.1,N,003.9,K,A*00
$GPGGA,020912,3740.1116,N,12700.6754,E,1,06,02.9,00130.8,M,019.5,M,00,0000*43
$GPGSA,A,3,05,07,10,04,08,02,,,,,,,04.7,02.9,03.7*03
$GPGSV,3,1,09,02,73,110,26,05,66,326,40,10,61,033,39,29,31,302,32*73
$GPGSV,3,2,09,15,28,211,36,04,26,123,37,08,22,101,35,07,19,063,34*7F
$GPGSV,3,3,09,13,01,037,00,,,,,,,,,,,,*47
$GPRMC,020912,A,3740.1116,N,12700.6754,E,002.5,021.0,280310,,,A*77
$GPVTG,021.0,T,,M,002.5,N,004.6,K,A*0B
$GPGGA,020927,3740.1097,N,12700.6672,E,1,06,02.9,00118.7,M,019.5,M,00,0000*4D
$GPGSA,A,3,04,10,05,02,08,07,,,,,,,04.7,02.9,03.7*03
$GPGSV,3,1,09,02,73,110,39,05,66,326,38,10,61,033,39,29,31,302,36*76
$GPGSV,3,2,09,15,28,211,36,04,26,123,41,08,22,101,38,07,19,063,34*73
$GPGSV,3,3,09,13,01,037,00,,,,,,,,,,,,*47
$GPRMC,020927,A,3740.1097,N,12700.6672,E,002.3,321.8,280310,,,A*71
$GPVTG,321.8,T,,M,002.3,N,004.3,K,A*03
$GPGGA,020942,3740.1111,N,12700.6574,E,1,06,02.9,00113.3,M,019.5,M,00,0000*4B
$GPGSA,A,3,04,08,02,05,07,10,,,,,,,04.7,02.9,03.7*03
$GPGSV,3,1,09,02,73,110,40,05,66,326,35,10,61,033,31,29,31,302,35*7E
$GPGSV,3,2,09,15,28,211,38,04,26,123,40,08,22,101,39,07,19,063,37*7E
$GPGSV,3,3,09,13,01,037,18,,,,,,,,,,,,*4E
$GPRMC,020942,A,3740.1111,N,12700.6574,E,002.1,311.1,280310,,,A*70
$GPVTG,311.1,T,,M,002.1,N,003.9,K,A*06
$GPGGA,020957,3740.1144,N,12700.6464,E,1,06,02.9,00112.5,M,019.5,M,00,0000*48
$GPGSA,A,3,08,10,02,07,05,04,,,,,,,04.7,02.9,03.7*03
$GPGSV,3,1,09,02,72,113,38,05,67,329,36,10,60,035,35,29,32,300,37*7E
$GPGSV,3,2,09,15,30,211,36,04,25,124,35,08,23,100,39,07,19,062,35*7C
$GPGSV,3,3,09,13,00,037,00,,,,,,,,,,,,*46
$GPRMC,020957,A,3740.1144,N,12700.6464,E,001.2,289.3,280310,,,A*76
$GPVTG,289.3,T,,M,001.2,N,002.2,K,A*0E
$GPGGA,021012,3740.1237,N,12700.6528,E,1,06,02.9,00126.6,M,019.5,M,00,0000*4B
$GPGSA,A,3,04,08,02,10,07,05,,,,,,,04.7,02.9,03.7*03
$GPGSV,3,1,09,02,72,113,40,05,67,329,33,10,60,035,39,29,32,300,37*78
$GPGSV,3,2,09,15,30,211,38,04,25,124,38,08,23,100,38,07,19,062,29*73
$GPGSV,3,3,09,13,00,037,00,,,,,,,,,,,,*46
$GPRMC,021012,A,3740.1237,N,12700.6528,E,003.7,041.9,280310,,,A*7A
$GPVTG,041.9,T,,M,003.7,N,006.9,K,A*0A
$GPGGA,021027,3740.1336,N,12700.6702,E,1,06,02.9,00135.4,M,019.5,M,00,0000*47
$GPGSA,A,3,08,05,07,04,10,02,,,,,,,04.7,02.9,03.7*03
$GPGSV,3,1,09,02,72,113,35,05,67,329,35,10,60,035,38,29,32,300,33*79
$GPGSV,3,2,09,15,30,211,38,04,25,124,36,08,23,100,37,07,19,062,37*7D
$GPGSV,3,3,09,13,00,037,00,,,,,,,,,,,,*46
$GPRMC,021027,A,3740.1336,N,12700.6702,E,002.9,009.0,280310,,,A*7C
$GPVTG,009.0,T,,M,002.9,N,005.4,K,A*0E
$GPGGA,021042,3740.1452,N,12700.6752,E,1,05,03.3,00131.5,M,019.5,M,00,0000*49
$GPGSA,A,3,02,05,08,10,04,,,,,,,,05.2,03.3,04.0*0B
$GPGSV,3,1,09,02,72,113,43,05,67,329,40,10,60,035,36,29,32,300,33*74
$GPGSV,3,2,09,15,30,211,37,04,25,124,36,08,23,100,36,07,19,062,00*77
$GPGSV,3,3,09,13,00,037,00,,,,,,,,,,,,*46
$GPRMC,021042,A,3740.1452,N,12700.6752,E,003.9,043.7,280310,,,A*77
$GPVTG,043.7,T,,M,003.9,N,007.2,K,A*02
$GPGGA,021104,3740.1564,N,12700.6900,E,1,06,02.9,00133.2,M,019.5,M,00,0000*4A
$GPGSA,A,3,02,04,05,08,07,10,,,,,,,04.7,02.9,03.7*03
$GPGSV,3,1,09,02,71,115,37,05,67,331,37,10,60,036,41,04,24,124,39*7E
$GPGSV,3,2,09,08,23,099,39,07,19,062,36,29,32,300,39,15,30,211,41*7F
$GPGSV,3,3,09,13,00,037,00,,,,,,,,,,,,*46
$GPRMC,021104,A,3740.1564,N,12700.6900,E,001.9,068.5,280310,,,A*70
$GPVTG,068.5,T,,M,001.9,N,003.5,K,A*08
$GPGGA,021119,3740.1665,N,12700.7008,E,1,06,02.9,00138.7,M,019.5,M,00,0000*4A
$GPGSA,A,3,02,04,05,08,07,10,,,,,,,04.7,02.9,03.7*03
$GPGSV,3,1,09,02,71,115,38,05,67,331,37,10,60,036,42,04,24,124,37*7C
$GPGSV,3,2,09,08,23,099,41,07,19,062,34,29,32,300,40,15,30,211,38*72
$GPGSV,3,3,09,13,00,037,00,,,,,,,,,,,,*46
$GPRMC,021119,A,3740.1665,N,12700.7008,E,002.4,022.7,280310,,,A*7C
$GPVTG,022.7,T,,M,002.4,N,004.5,K,A*0D
$GPGGA,021134,3740.1734,N,12700.7038,E,1,06,02.9,00138.0,M,019.5,M,00,0000*44
$GPGSA,A,3,02,04,05,08,07,10,,,,,,,04.7,02.9,03.7*03
$GPGSV,3,1,09,02,71,115,43,05,67,331,37,10,60,036,35,04,24,124,41*71
$GPGSV,3,2,09,08,23,099,39,07,19,062,31,29,32,300,39,15,30,211,41*78
$GPGSV,3,3,09,13,00,037,00,,,,,,,,,,,,*46
$GPRMC,021134,A,3740.1734,N,12700.7038,E,002.8,044.6,280310,,,A*78
$GPVTG,044.6,T,,M,002.8,N,005.3,K,A*07
$GPGGA,021149,3740.1823,N,12700.7077,E,1,06,02.9,00143.0,M,019.5,M,00,0000*40
$GPGSA,A,3,02,04,05,08,07,10,,,,,,,04.7,02.9,03.7*03
$GPGSV,2,1,08,02,71,115,42,05,67,332,38,10,59,037,42,29,32,300,39*74
$GPGSV,2,2,08,15,31,212,39,04,24,124,40,08,24,099,41,07,19,061,34*79
$GPRMC,021149,A,3740.1823,N,12700.7077,E,001.9,041.9,280310,,,A*78
$GPVTG,041.9,T,,M,001.9,N,003.6,K,A*0C
$GPGGA,021204,3740.1885,N,12700.7134,E,1,06,02.9,00148.1,M,019.5,M,00,0000*4A
$GPGSA,A,3,02,04,05,08,07,10,,,,,,,04.7,02.9,03.6*02
$GPGSV,2,1,08,02,71,115,40,05,67,332,38,10,59,037,39,29,32,300,39*7A
$GPGSV,2,2,08,15,31,212,39,04,24,124,40,08,24,099,40,07,19,061,43*78
$GPRMC,021204,A,3740.1885,N,12700.7134,E,001.3,024.9,280310,,,A*71
$GPVTG,024.9,T,,M,001.3,N,002.5,K,A*07
$GPGGA,021214,3740.1924,N,12700.7168,E,1,06,02.9,00149.7,M,019.5,M,00,0000*4F
$GPGSA,A,3,02,08,05,04,10,07,,,,,,,04.7,02.9,03.6*02
$GPGSV,2,1,08,02,71,116,41,05,67,332,40,10,59,037,37,29,32,299,38*79
$GPGSV,2,2,08,15,31,212,37,04,24,124,38,08,24,099,37,07,19,061,31*7C
$GPRMC,021214,A,3740.1924,N,12700.7168,E,001.1,027.0,280310,,,A*7B
$GPVTG,027.0,T,,M,001.1,N,002.0,K,A*0A
$GPGGA,021229,3740.2021,N,12700.7185,E,1,06,02.9,00152.9,M,019.5,M,00,0000*49
$GPGSA,A,3,04,08,10,02,07,05,,,,,,,04.7,02.9,03.6*02
$GPGSV,2,1,08,02,71,116,38,05,67,332,36,10,59,037,40,29,32,299,36*78
$GPGSV,2,2,08,15,31,212,33,04,24,124,39,08,24,099,39,07,19,061,37*71
$GPRMC,021229,A,3740.2021,N,12700.7185,E,002.9,324.1,280310,,,A*73
$GPVTG,324.1,T,,M,002.9,N,005.4,K,A*03
$GPGGA,021244,3740.2057,N,12700.7206,E,1,06,02.9,00159.0,M,019.5,M,00,0000*49
$GPGSA,A,3,02,04,08,05,10,07,,,,,,,04.7,02.9,03.6*02
$GPGSV,2,1,08,02,71,116,42,05,67,332,37,10,59,037,38,29,32,299,35*78
$GPGSV,2,2,08,15,31,212,36,04,24,124,39,08,24,099,38,07,19,061,32*70
$GPRMC,021244,A,3740.2057,N,12700.7206,E,002.2,061.5,280310,,,A*7C
$GPVTG,061.5,T,,M,002.2,N,004.1,K,A*0A
$GPGGA,021304,3740.2160,N,12700.7353,E,1,05,02.3,00161.4,M,019.5,M,00,0000*4E
$GPGSA,A,3,04,02,08,10,07,,,,,,,,02.5,02.3,00.9*05
$GPGSV,2,1,08,02,71,117,44,05,67,333,00,10,59,037,39,08,24,099,39*71
$GPGSV,2,2,08,04,24,125,41,07,19,061,31,29,32,299,38,15,31,212,40*7A
$GPRMC,021304,A,3740.2160,N,12700.7353,E,001.3,058.2,280310,,,A*72
$GPVTG,058.2,T,,M,001.3,N,002.4,K,A*06
$GPGGA,021316,3740.2188,N,12700.7413,E,1,06,02.9,00166.1,M,019.5,M,00,0000*43
$GPGSA,A,3,04,02,08,05,10,07,,,,,,,04.7,02.9,03.6*02
$GPGSV,2,1,08,02,71,117,42,05,67,333,37,10,59,037,38,08,24,099,37*7C
$GPGSV,2,2,08,04,24,125,42,07,19,061,25,29,32,299,39,15,31,212,42*7F
$GPRMC,021316,A,3740.2188,N,12700.7413,E,000.7,083.1,280310,,,A*74
$GPVTG,083.1,T,,M,000.7,N,001.3,K,A*02
$GPGGA,021334,3740.2252,N,12700.7447,E,1,06,02.9,00172.4,M,019.5,M,00,0000*46
$GPGSA,A,3,10,04,02,05,08,07,,,,,,,04.7,02.9,03.6*02
$GPGSV,2,1,08,02,70,117,43,05,67,334,38,10,59,038,40,08,24,098,32*70
$GPGSV,2,2,08,04,23,125,39,07,19,060,23,29,32,299,38,15,31,212,40*70
$GPRMC,021334,A,3740.2252,N,12700.7447,E,000.8,034.9,280310,,,A*7A
$GPVTG,034.9,T,,M,000.8,N,001.5,K,A*0F
$GPGGA,021345,3740.2297,N,12700.7471,E,1,05,03.3,00177.1,M,019.5,M,00,0000*44
$GPGSA,A,3,05,02,10,04,08,,,,,,,,05.2,03.3,04.0*0B
$GPGSV,2,1,08,02,70,117,33,05,67,334,40,10,59,038,37,29,32,299,38*75
$GPGSV,2,2,08,15,31,212,39,08,24,098,32,04,23,125,35,07,19,060,00*7E
$GPRMC,021345,A,3740.2297,N,12700.7471,E,001.2,313.1,280310,,,A*75
$GPVTG,313.1,T,,M,001.2,N,002.2,K,A*0E
$GPGGA,021400,3740.2327,N,12700.7547,E,1,06,02.9,00184.6,M,019.5,M,00,0000*4F
$GPGSA,A,3,02,04,10,05,07,08,,,,,,,04.7,02.9,03.6*02
$GPGSV,2,1,08,02,70,117,40,05,67,334,37,10,59,038,42,29,32,299,33*78
$GPGSV,2,2,08,15,31,212,36,08,24,098,31,04,23,125,40,07,19,060,20*72
$GPRMC,021400,A,3740.2327,N,12700.7547,E,002.1,053.3,280310,,,A*78
$GPVTG,053.3,T,,M,002.1,N,004.0,K,A*0F
$GPGGA,021415,3740.2357,N,12700.7564,E,1,05,03.2,00186.1,M,019.5,M,00,0000*41
$GPGSA,A,3,10,04,05,08,02,,,,,,,,05.2,03.2,04.0*0A
$GPGSV,2,1,08,02,70,117,38,05,67,334,39,10,59,038,40,29,32,299,38*70
$GPGSV,2,2,08,15,31,212,40,08,24,098,38,04,23,125,40,07,19,060,00*78
$GPRMC,021415,A,3740.2357,N,12700.7564,E,002.2,234.5,280310,,,A*7C
$GPVTG,234.5,T,,M,002.2,N,004.0,K,A*09
$GPGGA,021430,3740.2412,N,12700.7583,E,1,05,03.2,00187.8,M,019.5,M,00,0000*41
$GPGSA,A,3,04,05,10,08,02,,,,,,,,05.2,03.2,04.0*0A
$GPGSV,2,1,08,02,70,117,35,05,67,334,36,10,59,038,32,29,32,299,37*78
$GPGSV,2,2,08,15,31,212,32,08,24,098,27,04,23,125,36,07,19,060,00*72
$GPRMC,021430,A,3740.2412,N,12700.7583,E,001.8,011.1,280310,,,A*7C
$GPVTG,011.1,T,,M,001.8,N,003.3,K,A*05
$GPGGA,021445,3740.2452,N,12700.7632,E,1,05,03.2,00195.1,M,019.5,M,00,0000*44
$GPGSA,A,3,10,04,02,08,05,,,,,,,,05.2,03.2,04.0*0A
$GPGSV,2,1,08,02,70,117,33,05,67,334,35,10,59,038,39,29,32,299,35*74
$GPGSV,2,2,08,15,31,212,39,08,24,098,34,04,23,125,34,07,19,060,00*79
$GPRMC,021445,A,3740.2452,N,12700.7632,E,000.5,171.2,280310,,,A*7B
$GPVTG,171.2,T,,M,000.5,N,001.0,K,A*0C
$GPGGA,021503,3740.2611,N,12700.7715,E,1,06,02.9,00191.0,M,019.5,M,00,0000*4A
$GPGSA,A,3,05,02,04,08,10,07,,,,,,,04.6,02.9,03.6*03
$GPGSV,2,1,08,02,70,118,43,05,67,336,37,10,58,039,39,29,33,298,34*7D
$GPGSV,2,2,08,15,32,212,39,08,24,098,30,04,23,125,43,07,19,060,21*7D
$GPRMC,021503,A,3740.2611,N,12700.7715,E,001.0,093.2,280310,,,A*70
$GPVTG,093.2,T,,M,001.0,N,001.9,K,A*0C
$GPGGA,021515,3740.2583,N,12700.7751,E,1,04,03.7,00194.9,M,019.5,M,00,0000*44
$GPGSA,A,3,02,10,05,04,,,,,,,,,05.6,03.7,04.1*02
$GPGSV,2,1,08,02,70,118,40,05,67,336,35,10,58,039,36,29,33,298,38*7F
$GPGSV,2,2,08,15,32,212,38,08,24,098,00,04,23,125,33,07,19,060,00*7B
$GPRMC,021515,A,3740.2583,N,12700.7751,E,002.1,145.1,280310,,,A*74
$GPVTG,145.1,T,,M,002.1,N,003.9,K,A*05
$GPGGA,021530,3740.2554,N,12700.7773,E,1,05,03.2,00205.6,M,019.5,M,00,0000*49
$GPGSA,A,3,02,05,04,10,08,,,,,,,,05.2,03.2,04.0*0A
$GPGSV,2,1,08,02,70,118,31,05,67,336,38,10,58,039,34,29,33,298,38*76
$GPGSV,2,2,08,15,32,212,39,08,24,098,27,04,23,125,38,07,19,060,00*74
$GPRMC,021530,A,3740.2554,N,12700.7773,E,000.7,134.2,280310,,,A*78
$GPVTG,134.2,T,,M,000.7,N,001.3,K,A*0C
$GPGGA,021545,3740.2579,N,12700.7786,E,1,05,03.2,00212.8,M,019.5,M,00,0000*46
$GPGSA,A,3,05,02,04,10,08,,,,,,,,05.2,03.2,04.0*0A
$GPGSV,2,1,08,02,70,118,30,05,67,336,36,10,58,039,33,29,33,298,26*71
$GPGSV,2,2,08,15,32,212,38,08,24,098,26,04,23,125,37,07,19,060,00*7B
$GPRMC,021545,A,3740.2579,N,12700.7786,E,000.9,283.4,280310,,,A*78
$GPVTG,283.4,T,,M,000.9,N,001.6,K,A*0E
$GPGGA,021600,3740.2662,N,12700.7799,E,1,05,03.2,00220.3,M,019.5,M,00,0000*49
$GPGSA,A,3,08,04,10,02,05,,,,,,,,05.2,03.2,04.0*0A
$GPGSV,2,1,08,02,70,118,38,05,67,336,36,10,58,039,38,29,33,298,36*73
$GPGSV,2,2,08,15,32,212,36,08,24,098,41,04,23,125,37,07,19,060,00*74
$GPRMC,021600,A,3740.2662,N,12700.7799,E,000.7,314.8,280310,,,A*70
$GPVTG,314.8,T,,M,000.7,N,001.3,K,A*06
$GPGGA,021615,3740.2719,N,12700.7880,E,1,06,02.9,00227.5,M,019.5,M,00,0000*4F
$GPGSA,A,3,04,10,08,02,07,05,,,,,,,04.6,02.9,03.6*03
$GPGSV,2,1,08,02,70,118,30,05,67,336,30,10,58,039,40,29,33,298,35*71
$GPGSV,2,2,08,15,32,212,36,08,24,098,38,04,23,125,38,07,19,060,32*74
$GPRMC,021615,A,3740.2719,N,12700.7880,E,001.5,015.9,280310,,,A*7E
$GPVTG,015.9,T,,M,001.5,N,002.8,K,A*0E
$GPGGA,021633,3740.2839,N,12700.7845,E,1,06,02.9,00211.8,M,019.5,M,00,0000*47
$GPGSA,A,3,10,04,05,02,08,07,,,,,,,04.6,02.9,03.6*03
$GPGSV,2,1,08,02,69,120,38,05,67,337,34,10,58,040,46,08,25,097,42*7E
$GPGSV,2,2,08,04,22,126,40,07,19,059,35,29,33,297,36,15,33,212,33*76
$GPRMC,021633,A,3740.2839,N,12700.7845,E,000.2,131.5,280310,,,A*73
$GPVTG,131.5,T,,M,000.2,N,000.5,K,A*0C
$GPGGA,021645,3740.2879,N,12700.7825,E,1,06,02.9,00214.3,M,019.5,M,00,0000*4A
$GPGSA,A,3,10,04,05,02,08,07,,,,,,,04.6,02.9,03.6*03
$GPGSV,2,1,08,02,69,120,39,05,67,337,41,10,58,040,39,08,25,097,34*74
$GPGSV,2,2,08,04,22,126,36,07,19,059,35,29,33,297,44,15,33,212,39*78
$GPRMC,021645,A,3740.2879,N,12700.7825,E,000.9,284.9,280310,,,A*7A
$GPVTG,284.9,T,,M,000.9,N,001.7,K,A*05
$GPGGA,021703,3740.2956,N,12700.7748,E,1,06,02.9,00211.2,M,019.5,M,00,0000*45
$GPGSA,A,3,02,10,08,05,07,04,,,,,,,04.6,02.9,03.6*03
$GPGSV,2,1,08,02,69,120,38,05,67,338,35,10,58,040,33,08,25,097,36*71
$GPGSV,2,2,08,04,22,126,36,07,19,059,32,15,33,213,38,29,33,297,38*74
$GPRMC,021703,A,3740.2956,N,12700.7748,E,000.2,343.4,280310,,,A*7D
$GPVTG,343.4,T,,M,000.2,N,000.4,K,A*0B
$GPGGA,021715,3740.2963,N,12700.7753,E,1,06,02.9,00210.4,M,019.5,M,00,0000*49
$GPGSA,A,3,02,10,08,05,07,04,,,,,,,04.6,02.9,03.5*00
$GPGSV,2,1,08,02,69,120,42,05,67,338,38,10,58,040,39,08,25,097,39*74
$GPGSV,2,2,08,04,22,126,38,07,19,059,38,15,33,213,41,29,33,297,38*7E
$GPRMC,021715,A,3740.2963,N,12700.7753,E,000.7,358.9,280310,,,A*74
$GPVTG,358.9,T,,M,000.7,N,001.4,K,A*08
$GPGGA,021726,3740.3016,N,12700.7799,E,1,06,02.9,00214.3,M,019.5,M,00,0000*46
$GPGSA,A,3,02,04,10,08,05,07,,,,,,,04.6,02.9,03.5*00
$GPGSV,2,1,08,02,69,120,39,05,67,338,32,10,58,040,39,15,33,213,39*77
$GPGSV,2,2,08,29,33,297,37,08,25,097,38,04,22,126,39,07,19,059,29*7B
$GPRMC,021726,A,3740.3016,N,12700.7799,E,003.6,030.9,280310,,,A*77
$GPVTG,030.9,T,,M,003.6,N,006.7,K,A*03
$GPGGA,021741,3740.3109,N,12700.7954,E,1,06,02.9,00226.4,M,019.5,M,00,0000*41
$GPGSA,A,3,08,07,10,04,02,05,,,,,,,04.6,02.9,03.5*00
$GPGSV,2,1,08,02,69,120,38,05,67,338,35,10,58,040,37,15,33,213,37*71
$GPGSV,2,2,08,29,33,297,39,08,25,097,38,04,22,126,38,07,19,059,38*74
$GPRMC,021741,A,3740.3109,N,12700.7954,E,001.7,131.8,280310,,,A*74
$GPVTG,131.8,T,,M,001.7,N,003.1,K,A*02
$GPGGA,021756,3740.3176,N,12700.8057,E,1,06,02.9,00238.1,M,019.5,M,00,0000*40
$GPGSA,A,3,04,02,10,08,05,07,,,,,,,04.6,02.9,03.5*00
$GPGSV,2,1,08,02,69,120,41,05,67,338,37,10,58,040,37,15,33,213,32*78
$GPGSV,2,2,08,29,33,297,37,08,25,097,39,04,22,126,41,07,19,059,34*79
$GPRMC,021756,A,3740.3176,N,12700.8057,E,002.4,042.2,280310,,,A*70
$GPVTG,042.2,T,,M,002.4,N,004.6,K,A*0D
$GPGGA,021811,3740.3241,N,12700.8206,E,1,06,02.9,00251.6,M,019.5,M,00,0000*45
$GPGSA,A,3,10,04,02,07,08,05,,,,,,,04.6,02.9,03.5*00
$GPGSV,2,1,08,02,69,121,35,05,67,339,31,10,57,041,38,15,33,213,38*76
$GPGSV,2,2,08,29,33,297,38,08,25,096,34,04,22,126,39,07,19,058,37*77
$GPRMC,021811,A,3740.3241,N,12700.8206,E,005.2,073.6,280310,,,A*7A
$GPVTG,073.6,T,,M,005.2,N,009.7,K,A*06
$GPGGA,021833,3740.3464,N,12700.8177,E,1,06,02.9,00229.5,M,019.5,M,00,0000*4D
$GPGSA,A,3,07,05,10,02,08,04,,,,,,,04.6,02.9,03.5*00
$GPGSV,2,1,08,02,68,121,41,05,67,340,36,10,57,041,41,08,25,096,44*7C
$GPGSV,2,2,08,04,22,126,44,07,19,058,38,15,34,213,38,29,33,296,36*72
$GPRMC,021833,A,3740.3464,N,12700.8177,E,003.1,031.5,280310,,,A*7E
$GPVTG,031.5,T,,M,003.1,N,005.7,K,A*0A
$GPGGA,021845,3740.3554,N,12700.8232,E,1,06,02.9,00233.0,M,019.5,M,00,0000*42
$GPGSA,A,3,07,05,10,02,08,04,,,,,,,04.6,02.9,03.5*00
$GPGSV,2,1,08,02,68,121,42,05,67,340,37,10,57,041,41,15,34,213,39*77
$GPGSV,2,2,08,29,33,296,38,08,25,096,43,04,21,126,41,07,19,058,37*7A
$GPRMC,021845,A,3740.3554,N,12700.8232,E,002.5,357.4,280310,,,A*78
$GPVTG,357.4,T,,M,002.5,N,004.7,K,A*0C
$GPGGA,021903,3740.3715,N,12700.8106,E,1,06,02.9,00222.6,M,019.5,M,00,0000*44
$GPGSA,A,3,04,05,07,02,10,08,,,,,,,04.6,02.9,03.5*00
$GPGSV,2,1,08,02,68,122,37,05,67,340,39,10,57,041,42,08,25,096,39*78
$GPGSV,2,2,08,04,21,126,39,07,19,058,37,15,34,213,38,29,33,296,34*76
$GPRMC,021903,A,3740.3715,N,12700.8106,E,001.9,358.5,280310,,,A*79
$GPVTG,358.5,T,,M,001.9,N,003.6,K,A*0B
$GPGGA,021915,3740.3826,N,12700.8108,E,1,06,02.9,00228.2,M,019.5,M,00,0000*4C
$GPGSA,A,3,04,05,07,02,10,08,,,,,,,04.6,02.9,03.5*00
$GPGSV,2,1,08,02,68,122,41,05,67,341,39,10,57,041,43,15,34,213,37*74
$GPGSV,2,2,08,29,33,296,37,08,25,096,41,04,21,126,38,07,19,058,41*78
$GPRMC,021915,A,3740.3826,N,12700.8108,E,002.6,343.5,280310,,,A*79
$GPVTG,343.5,T,,M,002.6,N,004.9,K,A*05
$GPGGA,021926,3740.3910,N,12700.8092,E,1,06,02.9,00228.4,M,019.5,M,00,0000*4C
$GPGSA,A,3,08,10,04,02,05,07,,,,,,,04.6,02.9,03.5*00
$GPGSV,2,1,08,02,68,122,36,05,67,341,32,10,57,041,39,15,34,213,30*75
$GPGSV,2,2,08,29,33,296,32,08,25,096,39,04,21,126,37,07,19,058,35*7E
$GPRMC,021926,A,3740.3910,N,12700.8092,E,002.4,354.9,280310,,,A*77
$GPVTG,354.9,T,,M,002.4,N,004.5,K,A*01
$GPGGA,021941,3740.3970,N,12700.8136,E,1,05,03.2,00238.0,M,019.5,M,00,0000*48
$GPGSA,A,3,02,10,04,07,05,,,,,,,,04.8,03.2,03.6*0F
$GPGSV,2,1,08,02,68,122,40,05,67,341,34,10,57,041,37,15,34,213,38*74
$GPGSV,2,2,08,29,33,296,36,08,25,096,00,04,21,126,37,07,19,058,35*70
$GPRMC,021941,A,3740.3970,N,12700.8136,E,001.5,348.3,280310,,,A*7A
$GPVTG,348.3,T,,M,001.5,N,002.8,K,A*0F
$GPGGA,021956,3740.3993,N,12700.8146,E,1,06,02.9,00246.8,M,019.5,M,00,0000*4C
$GPGSA,A,3,08,05,04,07,10,02,,,,,,,04.5,02.9,03.5*03
$GPGSV,2,1,08,02,68,122,36,05,67,341,39,10,57,041,32,15,34,213,37*72
$GPGSV,2,2,08,29,33,296,38,08,25,096,40,04,21,126,36,07,19,058,37*79
$GPRMC,021956,A,3740.3993,N,12700.8146,E,001.8,353.2,280310,,,A*70
$GPVTG,353.2,T,,M,001.8,N,003.3,K,A*03
$GPGGA,022011,3740.4090,N,12700.8134,E,1,06,02.9,00251.9,M,019.5,M,00,0000*4A
$GPGSA,A,3,08,02,04,07,05,10,,,,,,,04.5,02.9,03.5*03
$GPGSV,2,1,08,02,68,122,40,05,67,341,36,10,57,041,35,15,34,213,35*79
$GPGSV,2,2,08,29,33,296,37,08,25,096,38,04,21,126,39,07,19,058,36*77
$GPRMC,022011,A,3740.4090,N,12700.8134,E,003.0,352.0,280310,,,A*78
$GPVTG,352.0,T,,M,003.0,N,005.6,K,A*09
$GPGGA,022026,3740.4171,N,12700.8188,E,1,06,02.9,00261.6,M,019.5,M,00,0000*4B
$GPGSA,A,3,04,08,10,07,05,02,,,,,,,04.5,02.9,03.5*03
$GPGSV,2,1,08,02,68,122,35,05,67,341,36,10,57,041,36,15,34,213,37*7A
$GPGSV,2,2,08,29,33,296,39,08,25,096,40,04,21,126,40,07,19,058,35*7B
$GPRMC,022026,A,3740.4171,N,12700.8188,E,003.6,079.2,280310,,,A*7B
$GPVTG,079.2,T,,M,003.6,N,006.7,K,A*05
$GPGGA,022041,3740.4277,N,12700.8336,E,1,06,02.9,00267.6,M,019.5,M,00,0000*4E
$GPGSA,A,3,04,02,05,08,07,10,,,,,,,04.5,02.9,03.4*02
$GPGSV,2,1,08,02,68,122,40,05,67,341,35,10,57,041,35,15,34,213,39*76
$GPGSV,2,2,08,29,33,296,34,08,25,096,35,04,21,126,40,07,19,058,28*78
$GPRMC,022041,A,3740.4277,N,12700.8336,E,001.1,067.4,280310,,,A*74
$GPVTG,067.4,T,,M,001.1,N,002.2,K,A*08
$GPGGA,022056,3740.4381,N,12700.8361,E,1,06,02.9,00268.4,M,019.5,M,00,0000*4F
$GPGSA,A,3,02,10,05,07,04,08,,,,,,,04.5,02.9,03.4*02
$GPGSV,2,1,08,02,68,122,35,05,67,341,35,10,57,041,39,15,34,213,38*79
$GPGSV,2,2,08,29,33,296,38,08,25,096,34,04,21,126,35,07,19,058,35*7B
$GPRMC,022056,A,3740.4381,N,12700.8361,E,003.8,053.3,280310,,,A*73
$GPVTG,053.3,T,,M,003.8,N,007.2,K,A*06
$GPGGA,022118,3740.4614,N,12700.8376,E,1,06,02.9,00250.5,M,019.5,M,00,0000*41
$GPGSA,A,3,08,02,10,04,07,05,,,,,,,04.5,02.9,03.4*02
$GPGSV,2,1,08,05,67,343,38,02,67,123,41,10,57,043,42,08,26,095,42*7B
$GPGSV,2,2,08,04,21,127,39,07,18,057,39,15,35,213,39,29,33,295,38*78
$GPRMC,022118,A,3740.4614,N,12700.8376,E,002.5,004.8,280310,,,A*72
$GPVTG,004.8,T,,M,002.5,N,004.7,K,A*05
$GPGGA,022133,3740.4723,N,12700.8461,E,1,06,02.9,00257.0,M,019.5,M,00,0000*4E
$GPGSA,A,3,08,02,10,04,07,05,,,,,,,04.5,02.9,03.4*02
$GPGSV,2,1,08,05,67,343,38,02,67,123,44,10,57,043,42,08,26,095,43*7F
$GPGSV,2,2,08,04,21,127,41,07,18,057,38,15,35,213,42,29,33,295,38*7A
$GPRMC,022133,A,3740.4723,N,12700.8461,E,002.2,044.8,280310,,,A*7C
$GPVTG,044.8,T,,M,002.2,N,004.1,K,A*00
$GPGGA,022148,3740.4809,N,12700.8532,E,1,06,02.9,00260.6,M,019.5,M,00,0000*40
$GPGSA,A,3,08,02,10,04,07,05,,,,,,,04.5,02.9,03.4*02
$GPGSV,2,1,08,05,67,344,38,02,67,123,40,10,56,043,35,15,35,214,39*75
$GPGSV,2,2,08,29,34,295,37,08,26,095,41,04,20,127,36,07,18,057,37*7D
$GPRMC,022148,A,3740.4809,N,12700.8532,E,001.6,341.0,280310,,,A*79
$GPVTG,341.0,T,,M,001.6,N,003.0,K,A*0F
$GPGGA,022203,3740.4925,N,12700.8533,E,1,06,02.9,00263.2,M,019.5,M,00,0000*45
$GPGSA,A,3,08,02,10,04,07,05,,,,,,,04.5,02.9,03.4*02
$GPGSV,2,1,08,05,67,344,37,02,67,124,40,10,56,043,42,15,35,214,39*7D
$GPGSV,2,2,08,29,34,295,37,08,26,095,43,04,20,127,39,07,18,057,40*70
$GPRMC,022203,A,3740.4925,N,12700.8533,E,001.5,351.9,280310,,,A*70
$GPVTG,351.9,T,,M,001.5,N,002.8,K,A*0D
$GPGGA,022211,3740.4985,N,12700.8530,E,1,06,02.9,00267.1,M,019.5,M,00,0000*48
$GPGSA,A,3,08,07,05,02,10,04,,,,,,,04.5,02.9,03.4*02
$GPGSV,2,1,08,05,67,344,37,02,67,124,36,10,56,043,40,15,35,214,34*73
$GPGSV,2,2,08,29,34,295,36,08,26,095,38,04,20,127,35,07,18,057,38*7E
$GPRMC,022211,A,3740.4985,N,12700.8530,E,002.4,018.3,280310,,,A*7C
$GPVTG,018.3,T,,M,002.4,N,004.6,K,A*03
$GPGGA,022226,3740.5062,N,12700.8443,E,1,06,02.9,00275.0,M,019.5,M,00,0000*4A
$GPGSA,A,3,10,07,05,08,04,02,,,,,,,04.5,02.9,03.4*02
$GPGSV,2,1,08,05,67,344,38,02,67,124,39,10,56,043,41,15,35,214,37*71
$GPGSV,2,2,08,29,34,295,29,08,26,095,39,04,20,127,37,07,18,057,40*7C
$GPRMC,022226,A,3740.5062,N,12700.8443,E,003.2,350.4,280310,,,A*73
$GPVTG,350.4,T,,M,003.2,N,006.0,K,A*08
$GPGGA,022241,3740.5189,N,12700.8363,E,1,06,02.9,00287.1,M,019.5,M,00,0000*46
$GPGSA,A,3,02,07,08,10,05,04,,,,,,,04.5,02.9,03.4*02
$GPGSV,2,1,08,05,67,344,35,02,67,124,42,10,56,043,39,15,35,214,00*7B
$GPGSV,2,2,08,29,34,295,39,08,26,095,39,04,20,127,34,07,18,057,40*7E
$GPRMC,022241,A,3740.5189,N,12700.8363,E,000.5,195.2,280310,,,A*7A
$GPVTG,195.2,T,,M,000.5,N,001.0,K,A*06
$GPGGA,022256,3740.5237,N,12700.8313,E,1,06,02.9,00291.9,M,019.5,M,00,0000*4E
$GPGSA,A,3,02,10,05,07,08,04,,,,,,,04.4,02.9,03.4*03
$GPGSV,2,1,08,05,67,344,36,02,67,124,42,10,56,043,40,15,35,214,34*71
$GPGSV,2,2,08,29,34,295,39,08,26,095,38,04,20,127,37,07,18,057,38*73
$GPRMC,022256,A,3740.5237,N,12700.8313,E,003.3,023.2,280310,,,A*74
$GPVTG,023.2,T,,M,003.3,N,006.1,K,A*09
$GPGGA,022311,3740.5385,N,12700.8408,E,1,06,02.9,00299.2,M,019.5,M,00,0000*4A
$GPGSA,A,3,08,07,10,05,02,04,,,,,,,04.4,02.9,03.4*03
$GPGSV,2,1,08,05,67,344,36,02,67,124,37,10,56,043,39,15,35,214,37*7E
$GPGSV,2,2,08,29,34,295,29,08,26,095,39,04,20,127,35,07,18,057,39*70
$GPRMC,022311,A,3740.5385,N,12700.8408,E,002.6,029.6,280310,,,A*79
$GPVTG,029.6,T,,M,002.6,N,004.9,K,A*09
$GPGGA,022333,3740.5595,N,12700.8288,E,1,06,02.9,00281.3,M,019.5,M,00,0000*4B
$GPGSA,A,3,10,07,05,08,04,02,,,,,,,04.4,02.9,03.3*04
$GPGSV,2,1,08,05,67,346,36,02,66,125,39,10,56,044,39,08,26,094,42*73
$GPGSV,2,2,08,04,20,128,37,07,18,056,44,15,36,214,38,29,34,294,36*7E
$GPRMC,022333,A,3740.5595,N,12700.8288,E,002.6,328.2,280310,,,A*76
$GPVTG,328.2,T,,M,002.6,N,004.8,K,A*0E
$GPGGA,022345,3740.5679,N,12700.8229,E,1,06,02.9,00278.1,M,019.5,M,00,0000*44
$GPGSA,A,3,10,07,05,08,04,02,,,,,,,04.4,02.9,03.3*04
$GPGSV,2,1,08,05,67,346,38,02,66,125,39,10,56,044,40,08,26,094,43*72
$GPGSV,2,2,08,04,20,128,41,07,18,056,41,15,36,214,39,29,34,294,36*7B
$GPRMC,022345,A,3740.5679,N,12700.8229,E,001.9,349.7,280310,,,A*73
$GPVTG,349.7,T,,M,001.9,N,003.6,K,A*09
$GPGGA,022356,3740.5764,N,12700.8212,E,1,06,02.9,00276.3,M,019.5,M,00,0000*4F
$GPGSA,A,3,07,05,08,02,10,04,,,,,,,04.4,02.9,03.3*04
$GPGSV,2,1,08,05,67,346,39,02,66,125,38,10,56,044,41,15,36,214,36*76
$GPGSV,2,2,08,29,34,294,36,08,26,094,39,04,20,128,39,07,18,056,39*7C
$GPRMC,022356,A,3740.5764,N,12700.8212,E,005.2,357.5,280310,,,A*76
$GPVTG,357.5,T,,M,005.2,N,009.7,K,A*00
$GPGGA,022411,3740.5902,N,12700.8119,E,1,06,02.9,00280.7,M,019.5,M,00,0000*40
$GPGSA,A,3,08,10,07,05,02,04,,,,,,,04.4,02.9,03.3*04
$GPGSV,2,1,08,05,67,346,36,02,66,125,39,10,56,044,40,15,36,214,34*7B
$GPGSV,2,2,08,29,34,294,35,08,26,094,40,04,20,128,36,07,18,056,39*7E
$GPRMC,022411,A,3740.5902,N,12700.8119,E,002.8,317.6,280310,,,A*7E
$GPVTG,317.6,T,,M,002.8,N,005.3,K,A*02
$GPGGA,022426,3740.5999,N,12700.8189,E,1,06,02.9,00296.6,M,019.5,M,00,0000*49
$GPGSA,A,3,07,04,10,08,05,02,,,,,,,04.4,02.9,03.3*04
$GPGSV,2,1,08,05,67,346,32,02,66,125,39,10,56,044,40,15,36,214,37*7C
$GPGSV,2,2,08,29,34,294,37,08,26,094,38,04,20,128,35,07,18,056,40*7E
$GPRMC,022426,A,3740.5999,N,12700.8189,E,002.6,009.7,280310,,,A*72
$GPVTG,009.7,T,,M,002.6,N,004.8,K,A*0B
$GPGGA,022441,3740.6110,N,12700.8250,E,1,06,02.9,00320.7,M,019.5,M,00,0000*48
$GPGSA,A,3,05,10,08,07,04,02,,,,,,,04.4,02.9,03.3*04
$GPGSV,2,1,08,05,67,346,36,02,66,125,33,10,56,044,40,15,36,214,38*7D
$GPGSV,2,2,08,29,34,294,35,08,26,094,38,04,20,128,35,07,18,056,39*72
$GPRMC,022441,A,3740.6110,N,12700.8250,E,001.4,297.3,280310,,,A*7E
$GPVTG,297.3,T,,M,001.4,N,002.7,K,A*02
$GPGGA,022456,3740.6206,N,12700.8213,E,1,06,02.9,00333.5,M,019.5,M,00,0000*4D
$GPGSA,A,3,07,02,08,05,10,04,,,,,,,04.4,02.9,03.3*04
$GPGSV,2,1,08,05,67,346,35,02,66,125,39,10,56,044,37,15,36,214,36*7A
$GPGSV,2,2,08,29,34,294,35,08,26,094,40,04,20,128,37,07,18,056,40*71
$GPRMC,022456,A,3740.6206,N,12700.8213,E,005.0,350.0,280310,,,A*72
$GPVTG,350.0,T,,M,005.0,N,009.4,K,A*03
$GPGGA,022511,3740.6317,N,12700.8117,E,1,06,02.9,00330.6,M,019.5,M,00,0000*49
$GPGSA,A,3,10,02,08,05,07,04,,,,,,,04.4,02.9,03.3*04
$GPGSV,2,1,08,05,67,346,33,02,66,125,37,10,56,044,38,15,36,214,37*7C
$GPGSV,2,2,08,29,34,294,32,08,26,094,39,04,20,128,35,07,18,056,35*78
$GPRMC,022511,A,3740.6317,N,12700.8117,E,002.6,342.1,280310,,,A*75
$GPVTG,342.1,T,,M,002.6,N,004.9,K,A*00
$GPGGA,022533,3740.6370,N,12700.8026,E,1,06,02.8,00302.4,M,019.5,M,00,0000*49
$GPGSA,A,3,08,10,02,07,05,04,,,,,,,04.4,02.8,03.3*05
$GPGSV,2,1,08,05,67,348,36,02,65,126,39,10,55,045,42,08,26,093,43*75
$GPGSV,2,2,08,04,19,128,41,07,18,055,38,15,37,214,40,29,34,293,37*75
$GPRMC,022533,A,3740.6370,N,12700.8026,E,002.0,036.9,280310,,,A*79
$GPVTG,036.9,T,,M,002.0,N,003.7,K,A*07
$GPGGA,022545,3740.6471,N,12700.7987,E,1,06,02.8,00298.0,M,019.5,M,00,0000*45
$GPGSA,A,3,08,10,02,07,05,04,,,,,,,04.4,02.8,03.3*05
$GPGSV,2,1,08,05,67,348,38,02,65,126,35,10,55,045,42,08,26,093,42*76
$GPGSV,2,2,08,04,19,128,34,07,18,055,40,15,37,214,39,29,34,293,36*77
$GPRMC,022545,A,3740.6471,N,12700.7987,E,003.0,348.8,280310,,,A*79
$GPVTG,348.8,T,,M,003.0,N,005.7,K,A*0B
$GPGGA,022556,3740.6543,N,12700.7903,E,1,06,02.8,00298.9,M,019.5,M,00,0000*42
$GPGSA,A,3,10,05,02,07,08,04,,,,,,,04.3,02.8,03.3*02
$GPGSV,2,1,08,05,67,348,41,02,65,126,31,10,55,045,42,15,37,214,33*7B
$GPGSV,2,2,08,29,34,293,36,08,26,093,28,04,19,128,28,07,18,055,34*78
$GPRMC,022556,A,3740.6543,N,12700.7903,E,002.3,313.2,280310,,,A*71
$GPVTG,313.2,T,,M,002.3,N,004.2,K,A*09
$GPGGA,022611,3740.6607,N,12700.7791,E,1,05,03.1,00295.9,M,019.5,M,00,0000*42
$GPGSA,A,3,05,10,02,08,04,,,,,,,,05.0,03.1,03.9*05
$GPGSV,2,1,08,05,67,348,39,02,65,126,39,10,55,045,40,15,37,214,32*7F
$GPGSV,2,2,08,29,34,293,40,08,26,093,25,04,19,128,28,07,18,055,00*73
$GPRMC,022611,A,3740.6607,N,12700.7791,E,000.7,230.0,280310,,,A*73
$GPVTG,230.0,T,,M,000.7,N,001.3,K,A*09
$GPGGA,022626,3740.6623,N,12700.7727,E,1,06,02.8,00295.8,M,019.5,M,00,0000*47
$GPGSA,A,3,02,05,10,07,04,08,,,,,,,04.3,02.8,03.2*03
$GPGSV,2,1,08,05,67,348,39,02,65,126,41,10,55,045,39,15,37,214,36*7A
$GPGSV,2,2,08,29,34,293,36,08,26,093,27,04,19,128,27,07,18,055,32*7E
$GPRMC,022626,A,3740.6623,N,12700.7727,E,002.6,337.3,280310,,,A*7A
$GPVTG,337.3,T,,M,002.6,N,004.9,K,A*00
$GPGGA,022641,3740.6707,N,12700.7754,E,1,06,02.8,00298.6,M,019.5,M,00,0000*46
$GPGSA,A,3,08,10,02,04,05,07,,,,,,,04.3,02.8,03.2*03
$GPGSV,2,1,08,05,67,348,37,02,65,126,35,10,55,045,40,15,37,214,32*7D
$GPGSV,2,2,08,29,34,293,36,08,26,093,39,04,19,128,31,07,18,055,36*72
$GPRMC,022641,A,3740.6707,N,12700.7754,E,001.9,305.6,280310,,,A*70
$GPVTG,305.6,T,,M,001.9,N,003.5,K,A*03
$GPGGA,022656,3740.6860,N,12700.7654,E,1,06,02.8,00298.4,M,019.5,M,00,0000*4D
$GPGSA,A,3,02,10,08,07,04,05,,,,,,,04.3,02.8,03.2*03
$GPGSV,2,1,08,05,67,350,29,02,65,127,41,10,55,046,39,15,37,215,35*72
$GPGSV,2,2,08,29,34,292,27,08,27,092,39,04,18,128,35,07,18,055,37*77
$GPRMC,022656,A,3740.6860,N,12700.7654,E,002.3,307.7,280310,,,A*73
$GPVTG,307.7,T,,M,002.3,N,004.3,K,A*08
$GPGGA,022711,3740.6935,N,12700.7599,E,1,06,02.8,00306.6,M,019.5,M,00,0000*48
$GPGSA,A,3,05,08,10,02,07,04,,,,,,,04.3,02.8,03.2*03
$GPGSV,2,1,08,05,67,350,41,02,65,127,35,10,55,046,37,15,37,215,36*72
$GPGSV,2,2,08,29,34,292,34,08,27,092,38,04,18,128,33,07,18,055,36*73
$GPRMC,022711,A,3740.6935,N,12700.7599,E,003.8,348.0,280310,,,A*74
$GPVTG,348.0,T,,M,003.8,N,007.1,K,A*0F
$GPGGA,022726,3740.7014,N,12700.7532,E,1,06,02.8,00307.1,M,019.5,M,00,0000*40
$GPGSA,A,3,08,07,05,10,02,04,,,,,,,04.3,02.8,03.2*03
$GPGSV,2,1,08,05,67,350,39,02,65,127,37,10,55,046,39,15,37,215,34*73
$GPGSV,2,2,08,29,34,292,31,08,27,092,40,04,18,128,37,07,18,055,40*7C
$GPRMC,022726,A,3740.7014,N,12700.7532,E,003.7,278.5,280310,,,A*72
$GPVTG,278.5,T,,M,003.7,N,006.9,K,A*0E
$GPGGA,022741,3740.7044,N,12700.7429,E,1,06,02.8,00303.3,M,019.5,M,00,0000*49
$GPGSA,A,3,08,10,05,07,02,04,,,,,,,04.3,02.8,03.2*03
$GPGSV,2,1,08,05,67,350,38,02,65,127,37,10,55,046,40,15,37,215,31*79
$GPGSV,2,2,08,29,34,292,36,08,27,092,40,04,18,128,34,07,18,055,34*7B
$GPRMC,022741,A,3740.7044,N,12700.7429,E,002.9,284.6,280310,,,A*72
$GPVTG,284.6,T,,M,002.9,N,005.4,K,A*0F
$GPGGA,022756,3740.7111,N,12700.7384,E,1,06,02.8,00308.6,M,019.5,M,00,0000*40
$GPGSA,A,3,05,04,10,02,07,08,,,,,,,04.3,02.8,03.2*03
$GPGSV,2,1,08,05,67,350,40,02,65,127,35,10,55,046,41,15,37,215,36*72
$GPGSV,2,2,08,29,34,292,31,08,27,092,35,04,18,128,38,07,18,055,30*76
$GPRMC,022756,A,3740.7111,N,12700.7384,E,001.1,336.7,280310,,,A*77
$GPVTG,336.7,T,,M,001.1,N,002.1,K,A*0F
$GPGGA,022811,3740.7150,N,12700.7380,E,1,06,02.8,00312.8,M,019.5,M,00,0000*48
$GPGSA,A,3,08,05,10,02,04,07,,,,,,,04.3,02.8,03.2*03
$GPGSV,2,1,08,05,67,350,38,02,65,127,40,10,55,046,41,15,37,215,39*70
$GPGSV,2,2,08,29,34,292,33,08,27,092,34,04,18,128,34,07,18,055,33*7A
$GPRMC,022811,A,3740.7150,N,12700.7380,E,002.6,282.5,280310,,,A*72
$GPVTG,282.5,T,,M,002.6,N,004.9,K,A*09
$GPGGA,022826,3740.7188,N,12700.7335,E,1,06,02.8,00308.3,M,019.5,M,00,0000*47
$GPGSA,A,3,05,08,02,04,07,10,,,,,,,04.3,02.8,03.2*03
$GPGSV,2,1,08,05,67,350,41,02,65,127,34,10,55,046,39,15,37,215,34*7F
$GPGSV,2,2,08,29,34,292,35,08,27,092,36,04,18,128,32,07,18,055,36*7D
$GPRMC,022826,A,3740.7188,N,12700.7335,E,003.1,314.0,280310,,,A*70
$GPVTG,314.0,T,,M,003.1,N,005.9,K,A*05
$GPGGA,022841,3740.7252,N,12700.7300,E,1,06,02.8,00316.0,M,019.5,M,00,0000*48
$GPGSA,A,3,02,05,07,08,04,10,,,,,,,04.3,02.8,03.2*03
$GPGSV,2,1,08,05,67,350,37,02,65,127,41,10,55,046,33,15,37,215,38*7A
$GPGSV,2,2,08,29,34,292,34,08,27,092,32,04,18,128,32,07,18,055,30*7E
$GPRMC,022841,A,3740.7252,N,12700.7300,E,003.1,041.2,280310,,,A*72
$GPVTG,041.2,T,,M,003.1,N,005.8,K,A*05
$GPGGA,022903,3740.7494,N,12700.7294,E,1,06,02.8,00313.7,M,019.5,M,00,0000*4D
$GPGSA,A,3,07,10,08,02,04,05,,,,,,,04.2,02.8,03.1*01
$GPGSV,2,1,08,05,67,353,38,02,64,128,38,10,54,047,44,08,27,091,40*7A
$GPGSV,2,2,08,07,18,054,42,04,18,129,36,15,38,215,39,29,34,291,37*7B
$GPRMC,022903,A,3740.7494,N,12700.7294,E,002.9,332.0,280310,,,A*79
$GPVTG,332.0,T,,M,002.9,N,005.4,K,A*05
$GPGGA,022915,3740.7582,N,12700.7265,E,1,06,02.8,00313.9,M,019.5,M,00,0000*4C
$GPGSA,A,3,07,10,08,02,04,05,,,,,,,04.2,02.8,03.1*01
$GPGSV,2,1,08,05,67,353,41,02,64,128,33,10,54,047,41,08,27,091,42*78
$GPGSV,2,2,08,07,18,054,42,04,18,129,36,15,38,215,39,29,34,291,36*7A
$GPRMC,022915,A,3740.7582,N,12700.7265,E,001.6,313.0,280310,,,A*79
$GPVTG,313.0,T,,M,001.6,N,003.0,K,A*08
$GPGGA,022926,3740.7603,N,12700.7207,E,1,06,02.8,00316.5,M,019.5,M,00,0000*4B
$GPGSA,A,3,05,10,07,08,02,04,,,,,,,04.2,02.8,03.1*01
$GPGSV,2,1,08,05,67,353,42,02,64,128,39,10,54,047,42,15,38,215,35*7E
$GPGSV,2,2,08,29,34,291,39,08,27,091,38,07,18,054,37,04,18,129,33*7F
$GPRMC,022926,A,3740.7603,N,12700.7207,E,000.2,238.7,280310,,,A*7D
$GPVTG,238.7,T,,M,000.2,N,000.4,K,A*05
$GPGGA,022941,3740.7568,N,12700.7214,E,1,06,02.8,00316.5,M,019.5,M,00,0000*46
$GPGSA,A,3,05,08,10,07,02,04,,,,,,,04.2,02.8,03.1*01
$GPGSV,2,1,08,05,67,353,38,02,64,128,35,10,54,047,32,15,38,215,39*74
$GPGSV,2,2,08,29,34,291,40,08,27,091,38,07,18,054,36,04,18,129,24*76
$GPRMC,022941,A,3740.7568,N,12700.7214,E,000.7,177.5,280310,,,A*7F
$GPVTG,177.5,T,,M,000.7,N,001.3,K,A*0C
$GPGGA,022956,3740.7595,N,12700.7219,E,1,06,02.8,00315.1,M,019.5,M,00,0000*48
$GPGSA,A,3,05,10,02,08,07,04,,,,,,,04.2,02.8,03.1*01
$GPGSV,2,1,08,05,67,354,42,02,63,128,39,10,54,048,40,15,39,215,42*72
$GPGSV,2,2,08,29,34,290,32,08,27,091,35,07,18,053,31,04,17,129,24*70
$GPRMC,022956,A,3740.7595,N,12700.7219,E,000.2,100.8,280310,,,A*7E
$GPVTG,100.8,T,,M,000.2,N,000.5,K,A*03
$GPGGA,023011,3740.7593,N,12700.7185,E,1,06,02.8,00322.1,M,019.5,M,00,0000*47
$GPGSA,A,3,08,07,10,05,04,02,,,,,,,04.2,02.8,03.1*01
$GPGSV,2,1,08,05,67,354,38,02,63,128,31,10,54,048,40,15,39,215,30*72
$GPGSV,2,2,08,29,34,290,38,08,27,091,40,07,18,053,39,04,17,129,34*71
$GPRMC,023011,A,3740.7593,N,12700.7185,E,001.4,233.4,280310,,,A*7D
$GPVTG,233.4,T,,M,001.4,N,002.7,K,A*0B
$GPGGA,023026,3740.7540,N,12700.7104,E,1,06,02.8,00319.8,M,019.5,M,00,0000*45
$GPGSA,A,3,07,05,10,08,04,02,,,,,,,04.2,02.8,03.1*01
$GPGSV,2,1,08,05,67,354,42,02,63,128,34,10,54,048,41,15,39,215,35*7E
$GPGSV,2,2,08,29,34,290,36,08,27,091,37,07,18,053,38,04,17,129,31*7B
$GPRMC,023026,A,3740.7540,N,12700.7104,E,003.9,249.8,280310,,,A*70
$GPVTG,249.8,T,,M,003.9,N,007.2,K,A*05
$GPGGA,023041,3740.7518,N,12700.6894,E,1,06,02.8,00312.3,M,019.5,M,00,0000*48
$GPGSA,A,3,05,02,08,10,07,04,,,,,,,04.2,02.8,03.1*01
$GPGSV,2,1,08,05,67,354,40,02,63,128,39,10,54,048,38,15,39,215,35*7F
$GPGSV,2,2,08,29,34,290,37,08,27,091,40,07,18,053,37,04,17,129,30*74
$GPRMC,023041,A,3740.7518,N,12700.6894,E,003.9,261.9,280310,,,A*76
$GPVTG,261.9,T,,M,003.9,N,007.3,K,A*0F
$GPGGA,023056,3740.7605,N,12700.6794,E,1,06,02.8,00313.1,M,019.5,M,00,0000*4D
$GPGSA,A,3,07,08,05,10,04,02,,,,,,,04.2,02.8,03.1*01
$GPGSV,2,1,08,05,67,354,42,02,63,128,33,10,54,048,39,15,39,215,31*72
$GPGSV,2,2,08,29,34,290,34,08,27,091,39,07,18,053,38,04,17,129,32*74
$GPRMC,023056,A,3740.7605,N,12700.6794,E,002.2,254.3,280310,,,A*76
$GPVTG,254.3,T,,M,002.2,N,004.1,K,A*08
$GPGGA,023118,3740.7609,N,12700.6664,E,1,06,02.8,00325.4,M,019.5,M,00,0000*44
$GPGSA,A,3,08,07,02,10,04,05,,,,,,,04.2,02.8,03.0*00
$GPGSV,2,1,08,05,67,355,41,02,63,129,38,10,53,049,41,08,27,090,38*76
$GPGSV,2,2,08,07,18,053,38,04,17,129,35,15,39,216,38,29,35,290,28*70
$GPRMC,023118,A,3740.7609,N,12700.6664,E,001.2,309.0,280310,,,A*76
$GPVTG,309.0,T,,M,001.2,N,002.2,K,A*04
$GPGGA,023133,3740.7671,N,12700.6632,E,1,06,02.8,00329.9,M,019.5,M,00,0000*40
$GPGSA,A,3,08,07,02,10,04,05,,,,,,,04.2,02.8,03.0*00
$GPGSV,2,1,08,05,67,355,40,02,63,129,38,10,53,049,42,08,27,090,38*74
$GPGSV,2,2,08,07,18,053,39,04,17,129,36,15,39,216,37,29,35,290,30*74
$GPRMC,023133,A,3740.7671,N,12700.6632,E,001.6,289.0,280310,,,A*7E
$GPVTG,289.0,T,,M,001.6,N,003.0,K,A*0A
$GPGGA,023148,3740.7679,N,12700.6546,E,1,06,02.8,00329.8,M,019.5,M,00,0000*45
$GPGSA,A,3,08,07,02,10,04,05,,,,,,,04.1,02.8,03.0*03
$GPGSV,2,1,08,05,67,355,38,02,63,129,38,10,53,049,42,08,27,090,38*7B
$GPGSV,2,2,08,07,18,053,38,04,17,129,37,15,39,216,37,29,35,290,32*76
$GPRMC,023148,A,3740.7679,N,12700.6546,E,000.7,231.6,280310,,,A*7F
$GPVTG,231.6,T,,M,000.7,N,001.4,K,A*09
$GPGGA,023203,3740.7659,N,12700.6500,E,1,06,02.8,00332.1,M,019.5,M,00,0000*4A
$GPGSA,A,3,08,07,02,10,04,05,,,,,,,04.1,02.8,03.0*03
$GPGSV,2,1,08,05,67,355,37,02,63,129,38,10,53,049,43,08,27,090,41*7B
$GPGSV,2,2,08,07,18,053,37,04,17,129,36,15,39,216,43,29,35,290,28*70
$GPRMC,023203,A,3740.7659,N,12700.6500,E,000.9,223.6,280310,,,A*7E
$GPVTG,223.6,T,,M,000.9,N,001.7,K,A*07
$GPGGA,023211,3740.7636,N,12700.6506,E,1,06,02.8,00334.9,M,019.5,M,00,0000*48
$GPGSA,A,3,08,10,04,02,05,07,,,,,,,04.1,02.8,03.0*03
$GPGSV,2,1,08,05,67,357,38,02,62,130,37,10,53,049,38,15,40,216,38*73
$GPGSV,2,2,08,29,35,289,32,08,28,090,38,07,18,052,32,04,17,130,35*70
$GPRMC,023211,A,3740.7636,N,12700.6506,E,001.8,168.7,280310,,,A*7F
$GPVTG,168.7,T,,M,001.8,N,003.5,K,A*0A
$GPGGA,023226,3740.7671,N,12700.6495,E,1,06,02.8,00339.0,M,019.5,M,00,0000*40
$GPGSA,A,3,10,07,05,04,02,08,,,,,,,04.1,02.8,03.0*03
$GPGSV,2,1,08,05,67,357,35,02,62,130,32,10,53,049,41,15,40,216,36*7B
$GPGSV,2,2,08,29,35,289,00,08,28,090,33,07,18,052,41,04,17,130,38*73
$GPRMC,023226,A,3740.7671,N,12700.6495,E,002.1,063.9,280310,,,A*7D
$GPVTG,063.9,T,,M,002.1,N,003.9,K,A*08
$GPGGA,023241,3740.7722,N,12700.6498,E,1,06,02.8,00345.5,M,019.5,M,00,0000*45
$GPGSA,A,3,07,08,02,04,10,05,,,,,,,04.1,02.8,03.0*03
$GPGSV,2,1,08,05,67,357,37,02,62,130,39,10,53,049,36,15,40,216,30*74
$GPGSV,2,2,08,29,35,289,00,08,28,090,39,07,18,052,41,04,17,130,37*76
$GPRMC,023241,A,3740.7722,N,12700.6498,E,001.6,321.9,280310,,,A*77
$GPVTG,321.9,T,,M,001.6,N,003.0,K,A*00
$GPGGA,023256,3740.7714,N,12700.6494,E,1,06,02.8,00352.8,M,019.5,M,00,0000*41
$GPGSA,A,3,05,08,02,10,04,07,,,,,,,04.1,02.8,03.0*03
$GPGSV,2,1,08,05,67,357,36,02,62,130,38,10,53,049,37,15,40,216,39*7C
$GPGSV,2,2,08,29,35,289,31,08,28,090,33,07,18,052,35,04,17,130,34*7E
$GPRMC,023256,A,3740.7714,N,12700.6494,E,000.6,216.0,280310,,,A*75
$GPVTG,216.0,T,,M,000.6,N,001.1,K,A*0E
$GPGGA,023311,3740.7752,N,12700.6445,E,1,06,02.8,00353.3,M,019.5,M,00,0000*47
$GPGSA,A,3,10,05,04,02,08,07,,,,,,,04.1,02.8,03.0*03
$GPGSV,2,1,08,05,67,357,41,02,62,130,37,10,53,049,43,15,40,216,38*71
$GPGSV,2,2,08,29,35,289,28,08,28,090,35,07,18,052,34,04,17,130,34*71
$GPRMC,023311,A,3740.7752,N,12700.6445,E,003.1,309.5,280310,,,A*77
$GPVTG,309.5,T,,M,003.1,N,005.8,K,A*0D
$GPGGA,023326,3740.7787,N,12700.6394,E,1,06,02.8,00358.9,M,019.5,M,00,0000*41
$GPGSA,A,3,05,10,07,04,08,02,,,,,,,04.1,02.8,03.0*03
$GPGSV,2,1,08,05,67,357,42,02,62,130,35,10,53,049,41,15,40,216,37*7D
$GPGSV,2,2,08,29,35,289,35,08,28,090,37,07,18,052,39,04,17,130,39*7F
$GPRMC,023326,A,3740.7787,N,12700.6394,E,000.9,023.8,280310,,,A*7D
$GPVTG,023.8,T,,M,000.9,N,001.7,K,A*0B
$GPGGA,023341,3740.7809,N,12700.6373,E,1,06,02.8,00366.2,M,019.5,M,00,0000*46
$GPGSA,A,3,02,10,08,07,05,04,,,,,,,04.1,02.8,03.0*03
$GPGSV,2,1,08,05,67,357,36,02,62,130,39,10,53,049,41,15,40,216,33*76
$GPGSV,2,2,08,29,35,289,40,08,28,090,34,07,18,052,37,04,17,130,36*7F
$GPRMC,023341,A,3740.7809,N,12700.6373,E,001.1,164.0,280310,,,A*7F
$GPVTG,164.0,T,,M,001.1,N,002.1,K,A*0D
$GPGGA,023356,3740.7788,N,12700.6331,E,1,05,04.4,00373.3,M,019.5,M,00,0000*4C
$GPGSA,A,3,07,10,08,02,05,,,,,,,,07.0,04.4,05.4*0D
$GPGSV,2,1,08,05,67,357,33,02,62,130,36,10,53,049,35,15,40,216,38*74
$GPGSV,2,2,08,29,35,289,35,08,28,090,37,07,18,052,39,04,17,130,00*75
$GPRMC,023356,A,3740.7788,N,12700.6331,E,004.2,265.0,280310,,,A*7D
$GPVTG,265.0,T,,M,004.2,N,007.9,K,A*04
$GPGGA,023411,3740.7759,N,12700.6258,E,1,06,02.8,00388.4,M,019.5,M,00,0000*40
$GPGSA,A,3,10,05,08,07,04,02,,,,,,,04.1,02.8,02.9*0B
$GPGSV,2,1,08,05,67,357,42,02,62,130,34,10,53,049,40,15,40,216,36*7C
$GPGSV,2,2,08,29,35,289,38,08,28,090,40,07,18,052,39,04,17,130,34*7F
$GPRMC,023411,A,3740.7759,N,12700.6258,E,002.4,280.4,280310,,,A*74
$GPVTG,280.4,T,,M,002.4,N,004.5,K,A*04
$GPGGA,023426,3740.7727,N,12700.6248,E,1,06,02.8,00402.3,M,019.5,M,00,0000*4E
$GPGSA,A,3,10,05,08,04,07,02,,,,,,,04.1,02.8,02.9*0B
$GPGSV,2,1,08,05,67,357,39,02,62,130,36,10,53,049,42,15,40,216,38*7E
$GPGSV,2,2,08,29,35,289,28,08,28,090,38,07,18,052,36,04,17,130,35*7F
$GPRMC,023426,A,3740.7727,N,12700.6248,E,002.9,337.6,280310,,,A*7A
$GPVTG,337.6,T,,M,002.9,N,005.4,K,A*06
$GPGGA,023441,3740.7697,N,12700.6195,E,1,06,02.8,00405.6,M,019.5,M,00,0000*44
$GPGSA,A,3,08,05,02,07,10,04,,,,,,,04.1,02.8,02.9*0B
$GPGSV,2,1,08,05,67,357,40,02,62,130,38,10,53,049,37,15,40,216,35*71
$GPGSV,2,2,08,29,35,289,00,08,28,090,38,07,18,052,38,04,17,130,33*7D
$GPRMC,023441,A,3740.7697,N,12700.6195,E,001.6,237.6,280310,,,A*7F
$GPVTG,237.6,T,,M,001.6,N,002.9,K,A*01
$GPGGA,023456,3740.7701,N,12700.5968,E,1,06,02.8,00401.1,M,019.5,M,00,0000*46
$GPGSA,A,3,07,10,04,08,05,02,,,,,,,04.0,02.8,02.9*0A
$GPGSV,2,1,08,05,67,357,38,02,62,130,36,10,53,049,38,15,40,216,37*7D
$GPGSV,2,2,08,29,35,289,00,08,28,090,39,07,18,052,39,04,17,130,35*7B
$GPRMC,023456,A,3740.7701,N,12700.5968,E,002.4,269.6,280310,,,A*74
$GPVTG,269.6,T,,M,002.4,N,004.4,K,A*00
$GPGGA,023511,3740.7631,N,12700.5849,E,1,06,02.8,00398.4,M,019.5,M,00,0000*46
$GPGSA,A,3,05,10,02,04,08,07,,,,,,,04.0,02.8,02.9*0A
$GPGSV,3,1,09,05,67,000,36,02,61,131,36,10,52,051,38,15,41,217,35*7A
$GPGSV,3,2,09,29,35,288,30,08,28,088,34,07,17,051,32,04,15,130,33*7E
$GPGSV,3,3,09,24,00,310,00,,,,,,,,,,,,*44
$GPRMC,023511,A,3740.7631,N,12700.5849,E,002.6,226.5,280310,,,A*7C
$GPVTG,226.5,T,,M,002.6,N,004.9,K,A*07
$GPGGA,023526,3740.7607,N,12700.5782,E,1,06,02.8,00400.6,M,019.5,M,00,0000*4B
$GPGSA,A,3,08,10,04,07,02,05,,,,,,,04.0,02.8,02.9*0A
$GPGSV,3,1,09,05,67,000,31,02,61,131,36,10,52,051,42,15,41,217,31*74
$GPGSV,3,2,09,29,35,288,38,08,28,088,41,07,17,051,36,04,15,130,39*7A
$GPGSV,3,3,09,24,00,310,00,,,,,,,,,,,,*44
$GPRMC,023526,A,3740.7607,N,12700.5782,E,001.8,316.9,280310,,,A*76
$GPVTG,316.9,T,,M,001.8,N,003.4,K,A*0E
$GPGGA,023541,3740.7647,N,12700.5701,E,1,06,02.8,00396.6,M,019.5,M,00,0000*4D
$GPGSA,A,3,08,02,05,10,07,04,,,,,,,04.0,02.8,02.9*0A
$GPGSV,3,1,09,05,67,000,39,02,61,131,42,10,52,051,36,15,41,217,40*7A
$GPGSV,3,2,09,29,35,288,00,08,28,088,40,07,17,051,31,04,15,130,34*7A
$GPGSV,3,3,09,24,00,310,00,,,,,,,,,,,,*44
$GPRMC,023541,A,3740.7647,N,12700.5701,E,001.4,306.8,280310,,,A*74
$GPVTG,306.8,T,,M,001.4,N,002.6,K,A*01
$GPGGA,023556,3740.7678,N,12700.5787,E,1,06,02.8,00411.6,M,019.5,M,00,0000*41
$GPGSA,A,3,08,02,05,04,10,07,,,,,,,04.0,02.8,02.9*0A
$GPGSV,3,1,09,05,67,000,35,02,61,131,38,10,52,051,37,15,41,217,33*7E
$GPGSV,3,2,09,29,35,288,00,08,28,088,39,07,17,051,31,04,15,130,34*74
$GPGSV,3,3,09,24,00,310,00,,,,,,,,,,,,*44
$GPRMC,023556,A,3740.7678,N,12700.5787,E,002.1,269.8,280310,,,A*7E
$GPVTG,269.8,T,,M,002.1,N,003.9,K,A*01
$GPGGA,023611,3740.7682,N,12700.5802,E,1,06,02.8,00413.2,M,019.5,M,00,0000*40
$GPGSA,A,3,07,05,02,10,08,04,,,,,,,04.0,02.8,02.9*0A
$GPGSV,3,1,09,05,67,000,41,02,61,131,38,10,52,051,38,15,41,217,36*77
$GPGSV,3,2,09,29,35,288,26,08,28,088,31,07,17,051,39,04,15,130,25*70
$GPGSV,3,3,09,24,00,310,00,,,,,,,,,,,,*44
$GPRMC,023611,A,3740.7682,N,12700.5802,E,002.3,296.6,280310,,,A*75
$GPVTG,296.6,T,,M,002.3,N,004.3,K,A*00
$GPGGA,023626,3740.7687,N,12700.5828,E,1,06,02.8,00417.6,M,019.5,M,00,0000*49
$GPGSA,A,3,08,04,05,10,02,07,,,,,,,04.0,02.8,02.8*0B
$GPGSV,3,1,09,05,67,000,39,02,61,131,30,10,52,051,41,15,41,217,35*7D
$GPGSV,3,2,09,29,35,288,26,08,28,088,41,07,17,051,31,04,15,130,40*7C
$GPGSV,3,3,09,24,00,310,00,,,,,,,,,,,,*44
$GPRMC,023626,A,3740.7687,N,12700.5828,E,002.8,272.5,280310,,,A*7E
$GPVTG,272.5,T,,M,002.8,N,005.3,K,A*03
$GPGGA,023641,3740.7689,N,12700.5733,E,1,06,02.8,00409.9,M,019.5,M,00,0000*43
$GPGSA,A,3,10,02,07,05,08,04,,,,,,,04.0,02.8,02.8*0B
$GPGSV,3,1,09,05,67,000,33,02,61,131,36,10,52,051,40,15,41,217,31*74
$GPGSV,3,2,09,29,35,288,00,08,28,088,33,07,17,051,33,04,15,130,32*7A
$GPGSV,3,3,09,24,00,310,00,,,,,,,,,,,,*44
$GPRMC,023641,A,3740.7689,N,12700.5733,E,000.5,138.6,280310,,,A*75
$GPVTG,138.6,T,,M,000.5,N,000.9,K,A*0D
$GPGGA,023656,3740.7756,N,12700.5724,E,1,05,03.1,00423.3,M,019.5,M,00,0000*49
$GPGSA,A,3,02,05,10,08,04,,,,,,,,04.9,03.1,03.8*0C
$GPGSV,3,1,09,05,67,000,38,02,61,131,37,10,52,051,37,15,41,217,25*7B
$GPGSV,3,2,09,29,35,288,26,08,28,088,32,07,17,051,00,04,15,130,29*75
$GPGSV,3,3,09,24,00,310,00,,,,,,,,,,,,*44
$GPRMC,023656,A,3740.7756,N,12700.5724,E,001.3,325.8,280310,,,A*71
$GPVTG,325.8,T,,M,001.3,N,002.4,K,A*05
$GPGGA,023711,3740.7775,N,12700.5670,E,1,06,02.8,00428.0,M,019.5,M,00,0000*49
$GPGSA,A,3,02,10,04,08,07,05,,,,,,,04.0,02.8,02.8*0B
$GPGSV,3,1,09,05,67,000,30,02,61,131,39,10,52,051,36,15,41,217,39*71
$GPGSV,3,2,09,29,35,288,34,08,28,088,29,07,17,051,31,04,15,130,35*73
$GPGSV,3,3,09,24,00,310,00,,,,,,,,,,,,*44
$GPRMC,023711,A,3740.7775,N,12700.5670,E,000.9,108.2,280310,,,A*7E
$GPVTG,108.2,T,,M,000.9,N,001.8,K,A*06
$GPGGA,023726,3740.7773,N,12700.5743,E,1,06,02.8,00432.9,M,019.5,M,00,0000*48
$GPGSA,A,3,04,05,02,10,07,08,,,,,,,04.0,02.8,02.8*0B
$GPGSV,3,1,09,05,67,000,37,02,61,131,38,10,52,051,37,15,41,217,31*7E
$GPGSV,3,2,09,29,35,288,00,08,28,088,34,07,17,051,33,04,15,130,38*77
$GPGSV,3,3,09,24,00,310,00,,,,,,,,,,,,*44
$GPRMC,023726,A,3740.7773,N,12700.5743,E,000.2,081.8,280310,,,A*7C
$GPVTG,081.8,T,,M,000.2,N,000.3,K,A*0D
$GPGGA,023741,3740.7770,N,12700.5865,E,1,05,02.9,00441.0,M,019.5,M,00,0000*4E
$GPGSA,A,3,05,10,08,04,07,,,,,,,,04.4,02.9,03.3*06
$GPGSV,3,1,09,05,67,000,33,02,61,131,00,10,52,051,37,15,41,217,31*71
$GPGSV,3,2,09,29,35,288,38,08,28,088,36,07,17,051,32,04,15,130,37*70
$GPGSV,3,3,09,24,00,310,00,,,,,,,,,,,,*44
$GPRMC,023741,A,3740.7770,N,12700.5865,E,001.7,130.2,280310,,,A*70
$GPVTG,130.2,T,,M,001.7,N,003.1,K,A*09
$GPGGA,023804,3740.7809,N,12700.5654,E,1,06,02.8,00412.6,M,019.5,M,00,0000*4F
$GPGSA,A,3,02,08,05,10,04,07,,,,,,,03.9,02.8,02.8*05
$GPGSV,3,1,09,05,67,004,35,02,59,133,38,10,51,052,43,08,29,087,41*7C
$GPGSV,3,2,09,07,17,050,40,04,14,131,35,15,42,217,42,29,35,286,37*70
$GPGSV,3,3,09,24,01,310,00,,,,,,,,,,,,*45
$GPRMC,023804,A,3740.7809,N,12700.5654,E,000.6,171.4,280310,,,A*70
$GPVTG,171.4,T,,M,000.6,N,001.2,K,A*0B
$GPGGA,023815,3740.7814,N,12700.5636,E,1,06,02.8,00408.7,M,019.5,M,00,0000*4D
$GPGSA,A,3,02,08,05,10,04,07,,,,,,,03.9,02.8,02.8*05
$GPGSV,3,1,09,05,67,004,33,02,59,133,42,10,51,053,39,15,43,217,45*74
$GPGSV,3,2,09,29,35,286,34,08,29,087,31,07,17,050,36,04,14,131,36*7F
$GPGSV,3,3,09,24,01,310,00,,,,,,,,,,,,*45
$GPRMC,023815,A,3740.7814,N,12700.5636,E,000.1,274.3,280310,,,A*7E
$GPVTG,274.3,T,,M,000.1,N,000.2,K,A*0C
$GPGGA,023826,3740.7806,N,12700.5621,E,1,05,04.4,00407.9,M,019.5,M,00,0000*40
$GPGSA,A,3,02,04,08,10,07,,,,,,,,05.5,04.4,03.2*0B
$GPGSV,3,1,09,05,67,004,00,02,59,133,42,10,51,053,30,15,43,218,40*77
$GPGSV,3,2,09,29,35,286,00,08,29,087,36,07,17,050,28,04,14,131,40*71
$GPGSV,3,3,09,24,01,310,00,,,,,,,,,,,,*45
$GPRMC,023826,A,3740.7806,N,12700.5621,E,001.7,281.8,280310,,,A*7D
$GPVTG,281.8,T,,M,001.7,N,003.2,K,A*09
$GPGGA,023841,3740.7772,N,12700.5587,E,1,06,02.8,00413.1,M,019.5,M,00,0000*46
$GPGSA,A,3,04,05,02,08,10,07,,,,,,,03.9,02.8,02.8*05
$GPGSV,3,1,09,05,67,004,40,02,59,133,39,10,51,053,37,15,43,218,40*78
$GPGSV,3,2,09,29,35,286,33,08,29,087,39,07,17,050,35,04,14,131,42*70
$GPGSV,3,3,09,24,01,310,00,,,,,,,,,,,,*45
$GPRMC,023841,A,3740.7772,N,12700.5587,E,001.4,237.0,280310,,,A*79
$GPVTG,237.0,T,,M,001.4,N,002.7,K,A*0B
$GPGGA,023856,3740.7773,N,12700.5575,E,1,06,02.8,00414.9,M,019.5,M,00,0000*43
$GPGSA,A,3,04,02,05,10,07,08,,,,,,,03.9,02.8,02.7*0A
$GPGSV,3,1,09,05,67,004,38,02,59,133,40,10,51,053,39,15,43,218,42*75
$GPGSV,3,2,09,29,35,286,39,08,29,087,31,07,17,050,34,04,14,131,40*71
$GPGSV,3,3,09,24,01,310,00,,,,,,,,,,,,*45
$GPRMC,023856,A,3740.7773,N,12700.5575,E,000.1,294.1,280310,,,A*7F
$GPVTG,294.1,T,,M,000.1,N,000.2,K,A*00
$GPGGA,023911,3740.7759,N,12700.5573,E,1,06,02.8,00411.5,M,019.5,M,00,0000*46
$GPGSA,A,3,04,08,05,07,02,10,,,,,,,03.9,02.8,02.7*0A
$GPGSV,3,1,09,05,67,004,39,02,59,133,37,10,51,053,35,15,43,218,41*7B
$GPGSV,3,2,09,29,35,286,39,08,29,087,39,07,17,050,39,04,14,131,41*75
$GPGSV,3,3,09,24,01,310,00,,,,,,,,,,,,*45
$GPRMC,023911,A,3740.7759,N,12700.5573,E,001.6,232.7,280310,,,A*7F
$GPVTG,232.7,T,,M,001.6,N,002.9,K,A*05
$GPGGA,023926,3740.7762,N,12700.5611,E,1,06,02.8,00416.5,M,019.5,M,00,0000*4A
$GPGSA,A,3,10,02,08,07,05,04,,,,,,,03.9,02.8,02.7*0A
$GPGSV,3,1,09,05,67,004,37,02,59,133,42,10,51,053,44,15,43,218,33*74
$GPGSV,3,2,09,29,35,286,36,08,29,087,40,07,17,050,39,04,14,131,35*77
$GPGSV,3,3,09,24,01,310,00,,,,,,,,,,,,*45
$GPRMC,023926,A,3740.7762,N,12700.5611,E,000.6,266.4,280310,,,A*77
$GPVTG,266.4,T,,M,000.6,N,001.2,K,A*0E
$GPGGA,023941,3740.7762,N,12700.5577,E,1,06,02.8,00415.2,M,019.5,M,00,0000*4C
$GPGSA,A,3,02,10,08,07,04,05,,,,,,,03.9,02.8,02.7*0A
$GPGSV,3,1,09,05,67,004,35,02,59,133,40,10,51,053,41,15,43,218,00*71
$GPGSV,3,2,09,29,35,286,37,08,29,087,40,07,17,050,38,04,14,131,37*75
$GPGSV,3,3,09,24,01,310,00,,,,,,,,,,,,*45
$GPRMC,023941,A,3740.7762,N,12700.5577,E,000.7,255.0,280310,,,A*70
$GPVTG,255.0,T,,M,000.7,N,001.4,K,A*0D
$GPGGA,023956,3740.7774,N,12700.5580,E,1,06,02.8,00416.2,M,019.5,M,00,0000*46
$GPGSA,A,3,10,02,08,07,04,05,,,,,,,03.9,02.8,02.7*0A
$GPGSV,3,1,09,05,67,004,36,02,59,133,40,10,51,053,40,15,43,218,00*73
$GPGSV,3,2,09,29,35,286,37,08,29,087,40,07,17,050,38,04,14,131,37*75
$GPGSV,3,3,09,24,01,310,00,,,,,,,,,,,,*45
$GPRMC,023956,A,3740.7774,N,12700.5580,E,000.0,117.3,280310,,,A*78
$GPVTG,117.3,T,,M,000.0,N,000.0,K,A*09
$GPGGA,024011,3740.7778,N,12700.5585,E,1,06,02.8,00413.2,M,019.5,M,00,0000*47
$GPGSA,A,3,10,02,07,05,08,04,,,,,,,03.9,02.8,02.7*0A
$GPGSV,3,1,09,05,67,004,41,02,59,133,40,10,51,053,41,15,43,218,32*73
$GPGSV,3,2,09,29,35,286,00,08,29,087,38,07,17,050,39,04,14,131,37*7F
$GPGSV,3,3,09,24,01,310,00,,,,,,,,,,,,*45
$GPRMC,024011,A,3740.7778,N,12700.5585,E,001.0,017.8,280310,,,A*77
$GPVTG,017.8,T,,M,001.0,N,001.9,K,A*0A
$GPGGA,024031,3740.7764,N,12700.5495,E,1,06,02.8,00414.4,M,019.5,M,00,0000*49
$GPGSA,A,3,08,04,02,07,05,10,,,,,,,03.9,02.8,02.7*0A
$GPGSV,3,1,09,05,67,004,35,02,59,133,38,10,51,053,38,15,43,218,39*7A
$GPGSV,3,2,09,29,35,286,36,08,29,087,37,07,17,050,34,04,14,131,36*79
$GPGSV,3,3,09,24,01,310,00,,,,,,,,,,,,*45
$GPRMC,024031,A,3740.7764,N,12700.5495,E,002.1,268.1,280310,,,A*79
$GPVTG,268.1,T,,M,002.1,N,003.9,K,A*09
$GPGGA,024046,3740.7776,N,12700.5482,E,1,06,02.8,00425.0,M,019.5,M,00,0000*4A
$GPGSA,A,3,05,10,08,02,07,04,,,,,,,03.9,02.8,02.7*0A
